$GPGGA,193601.514,3348.528,N,11755.529,W,1,12,1.0,0.0,M,0.0,M,,*7A
$GPGSA,A,3,01,02,03,04,05,06,07,08,09,10,11,12,1.0,1.0,1.0*30
$GPRMC,193601.514,A,3348.528,N,11755.529,W,001.9,078.4,150220,000.0,W*69
$GPGGA,193602.514,3348.528,N,11755.528,W,1,12,1.0,0.0,M,0.0,M,,*78
$GPGSA,A,3,01,02,03,04,05,06,07,08,09,10,11,12,1.0,1.0,1.0*30
$GPRMC,193602.514,A,3348.528,N,11755.528,W,001.9,078.4,150220,000.0,W*6B
$GPGGA,193603.514,3348.528,N,11755.528,W,1,12,1.0,0.0,M,0.0,M,,*79
$GPGSA,A,3,01,02,03,04,05,06,07,08,09,10,11,12,1.0,1.0,1.0*30
$GPRMC,193603.514,A,3348.528,N,11755.528,W,001.9,078.4,150220,000.0,W*6A
$GPGGA,193604.514,3348.529,N,11755.527,W,1,12,1.0,0.0,M,0.0,M,,*70
$GPGSA,A,3,01,02,03,04,05,06,07,08,09,10,11,12,1.0,1.0,1.0*30
$GPRMC,193604.514,A,3348.529,N,11755.527,W,001.9,078.4,150220,000.0,W*63
$GPGGA,193605.514,3348.529,N,11755.526,W,1,12,1.0,0.0,M,0.0,M,,*70
$GPGSA,A,3,01,02,03,04,05,06,07,08,09,10,11,12,1.0,1.0,1.0*30
$GPRMC,193605.514,A,3348.529,N,11755.526,W,001.9,078.4,150220,000.0,W*63
$GPGGA,193606.514,3348.529,N,11755.526,W,1,12,1.0,0.0,M,0.0,M,,*73
$GPGSA,A,3,01,02,03,04,05,06,07,08,09,10,11,12,1.0,1.0,1.0*30
$GPRMC,193606.514,A,3348.529,N,11755.526,W,001.9,078.4,150220,000.0,W*60
$GPGGA,193607.514,3348.529,N,11755.525,W,1,12,1.0,0.0,M,0.0,M,,*71
$GPGSA,A,3,01,02,03,04,05,06,07,08,09,10,11,12,1.0,1.0,1.0*30
$GPRMC,193607.514,A,3348.529,N,11755.525,W,001.9,078.4,150220,000.0,W*62
$GPGGA,193608.514,3348.529,N,11755.525,W,1,12,1.0,0.0,M,0.0,M,,*7E
$GPGSA,A,3,01,02,03,04,05,06,07,08,09,10,11,12,1.0,1.0,1.0*30
$GPRMC,193608.514,A,3348.529,N,11755.525,W,001.9,078.4,150220,000.0,W*6D
$GPGGA,193609.514,3348.529,N,11755.524,W,1,12,1.0,0.0,M,0.0,M,,*7E
$GPGSA,A,3,01,02,03,04,05,06,07,08,09,10,11,12,1.0,1.0,1.0*30
$GPRMC,193609.514,A,3348.529,N,11755.524,W,001.9,078.4,150220,000.0,W*6D
$GPGGA,193610.514,3348.529,N,11755.523,W,1,12,1.0,0.0,M,0.0,M,,*71
$GPGSA,A,3,01,02,03,04,05,06,07,08,09,10,11,12,1.0,1.0,1.0*30
$GPRMC,193610.514,A,3348.529,N,11755.523,W,001.9,078.4,150220,000.0,W*62
$GPGGA,193611.514,3348.530,N,11755.523,W,1,12,1.0,0.0,M,0.0,M,,*78
$GPGSA,A,3,01,02,03,04,05,06,07,08,09,10,11,12,1.0,1.0,1.0*30
$GPRMC,193611.514,A,3348.530,N,11755.523,W,001.9,078.4,150220,000.0,W*6B
$GPGGA,193612.514,3348.530,N,11755.522,W,1,12,1.0,0.0,M,0.0,M,,*7A
$GPGSA,A,3,01,02,03,04,05,06,07,08,09,10,11,12,1.0,1.0,1.0*30
$GPRMC,193612.514,A,3348.530,N,11755.522,W,001.9,087.9,150220,000.0,W*64
$GPGGA,193613.514,3348.530,N,11755.521,W,1,12,1.0,0.0,M,0.0,M,,*78
$GPGSA,A,3,01,02,03,04,05,06,07,08,09,10,11,12,1.0,1.0,1.0*30
$GPRMC,193613.514,A,3348.530,N,11755.521,W,001.9,087.9,150220,000.0,W*66
$GPGGA,193614.514,3348.530,N,11755.521,W,1,12,1.0,0.0,M,0.0,M,,*7F
$GPGSA,A,3,01,02,03,04,05,06,07,08,09,10,11,12,1.0,1.0,1.0*30
$GPRMC,193614.514,A,3348.530,N,11755.521,W,001.9,087.9,150220,000.0,W*61
$GPGGA,193615.514,3348.530,N,11755.520,W,1,12,1.0,0.0,M,0.0,M,,*7F
$GPGSA,A,3,01,02,03,04,05,06,07,08,09,10,11,12,1.0,1.0,1.0*30
$GPRMC,193615.514,A,3348.530,N,11755.520,W,001.9,087.9,150220,000.0,W*61
$GPGGA,193616.514,3348.530,N,11755.519,W,1,12,1.0,0.0,M,0.0,M,,*76
$GPGSA,A,3,01,02,03,04,05,06,07,08,09,10,11,12,1.0,1.0,1.0*30
$GPRMC,193616.514,A,3348.530,N,11755.519,W,001.9,087.9,150220,000.0,W*68
$GPGGA,193617.514,3348.530,N,11755.519,W,1,12,1.0,0.0,M,0.0,M,,*77
$GPGSA,A,3,01,02,03,04,05,06,07,08,09,10,11,12,1.0,1.0,1.0*30
$GPRMC,193617.514,A,3348.530,N,11755.519,W,001.9,087.9,150220,000.0,W*69
$GPGGA,193618.514,3348.530,N,11755.518,W,1,12,1.0,0.0,M,0.0,M,,*79
$GPGSA,A,3,01,02,03,04,05,06,07,08,09,10,11,12,1.0,1.0,1.0*30
$GPRMC,193618.514,A,3348.530,N,11755.518,W,001.9,106.9,150220,000.0,W*6F
$GPGGA,193619.514,3348.530,N,11755.518,W,1,12,1.0,0.0,M,0.0,M,,*78
$GPGSA,A,3,01,02,03,04,05,06,07,08,09,10,11,12,1.0,1.0,1.0*30
$GPRMC,193619.514,A,3348.530,N,11755.518,W,001.9,106.9,150220,000.0,W*6E
$GPGGA,193620.514,3348.529,N,11755.517,W,1,12,1.0,0.0,M,0.0,M,,*75
$GPGSA,A,3,01,02,03,04,05,06,07,08,09,10,11,12,1.0,1.0,1.0*30
$GPRMC,193620.514,A,3348.529,N,11755.517,W,001.9,106.9,150220,000.0,W*63
$GPGGA,193621.514,3348.529,N,11755.516,W,1,12,1.0,0.0,M,0.0,M,,*75
$GPGSA,A,3,01,02,03,04,05,06,07,08,09,10,11,12,1.0,1.0,1.0*30
$GPRMC,193621.514,A,3348.529,N,11755.516,W,001.9,064.9,150220,000.0,W*66
$GPGGA,193622.514,3348.530,N,11755.516,W,1,12,1.0,0.0,M,0.0,M,,*7E
$GPGSA,A,3,01,02,03,04,05,06,07,08,09,10,11,12,1.0,1.0,1.0*30
$GPRMC,193622.514,A,3348.530,N,11755.516,W,001.9,064.9,150220,000.0,W*6D
$GPGGA,193623.514,3348.530,N,11755.515,W,1,12,1.0,0.0,M,0.0,M,,*7C
$GPGSA,A,3,01,02,03,04,05,06,07,08,09,10,11,12,1.0,1.0,1.0*30
$GPRMC,193623.514,A,3348.530,N,11755.515,W,001.9,064.9,150220,000.0,W*6F
$GPGGA,193624.514,3348.530,N,11755.515,W,1,12,1.0,0.0,M,0.0,M,,*7B
$GPGSA,A,3,01,02,03,04,05,06,07,08,09,10,11,12,1.0,1.0,1.0*30
$GPRMC,193624.514,A,3348.530,N,11755.515,W,001.9,064.9,150220,000.0,W*68
$GPGGA,193625.514,3348.530,N,11755.514,W,1,12,1.0,0.0,M,0.0,M,,*7B
$GPGSA,A,3,01,02,03,04,05,06,07,08,09,10,11,12,1.0,1.0,1.0*30
$GPRMC,193625.514,A,3348.530,N,11755.514,W,001.9,064.9,150220,000.0,W*68
$GPGGA,193626.514,3348.531,N,11755.514,W,1,12,1.0,0.0,M,0.0,M,,*79
$GPGSA,A,3,01,02,03,04,05,06,07,08,09,10,11,12,1.0,1.0,1.0*30
$GPRMC,193626.514,A,3348.531,N,11755.514,W,001.9,064.9,150220,000.0,W*6A
$GPGGA,193627.514,3348.531,N,11755.513,W,1,12,1.0,0.0,M,0.0,M,,*7F
$GPGSA,A,3,01,02,03,04,05,06,07,08,09,10,11,12,1.0,1.0,1.0*30
$GPRMC,193627.514,A,3348.531,N,11755.513,W,001.9,064.9,150220,000.0,W*6C
$GPGGA,193628.514,3348.531,N,11755.512,W,1,12,1.0,0.0,M,0.0,M,,*71
$GPGSA,A,3,01,02,03,04,05,06,07,08,09,10,11,12,1.0,1.0,1.0*30
$GPRMC,193628.514,A,3348.531,N,11755.512,W,001.9,203.0,150220,000.0,W*68
$GPGGA,193629.514,3348.531,N,11755.513,W,1,12,1.0,0.0,M,0.0,M,,*71
$GPGSA,A,3,01,02,03,04,05,06,07,08,09,10,11,12,1.0,1.0,1.0*30
$GPRMC,193629.514,A,3348.531,N,11755.513,W,001.9,203.0,150220,000.0,W*68
$GPGGA,193630.514,3348.530,N,11755.513,W,1,12,1.0,0.0,M,0.0,M,,*78
$GPGSA,A,3,01,02,03,04,05,06,07,08,09,10,11,12,1.0,1.0,1.0*30
$GPRMC,193630.514,A,3348.530,N,11755.513,W,001.9,203.0,150220,000.0,W*61
$GPGGA,193631.514,3348.530,N,11755.513,W,1,12,1.0,0.0,M,0.0,M,,*79
$GPGSA,A,3,01,02,03,04,05,06,07,08,09,10,11,12,1.0,1.0,1.0*30
$GPRMC,193631.514,A,3348.530,N,11755.513,W,001.9,203.0,150220,000.0,W*60
$GPGGA,193632.514,3348.529,N,11755.513,W,1,12,1.0,0.0,M,0.0,M,,*72
$GPGSA,A,3,01,02,03,04,05,06,07,08,09,10,11,12,1.0,1.0,1.0*30
$GPRMC,193632.514,A,3348.529,N,11755.513,W,001.9,203.0,150220,000.0,W*6B
$GPGGA,193633.514,3348.529,N,11755.513,W,1,12,1.0,0.0,M,0.0,M,,*73
$GPGSA,A,3,01,02,03,04,05,06,07,08,09,10,11,12,1.0,1.0,1.0*30
$GPRMC,193633.514,A,3348.529,N,11755.513,W,001.9,203.0,150220,000.0,W*6A
$GPGGA,193634.514,3348.528,N,11755.514,W,1,12,1.0,0.0,M,0.0,M,,*72
$GPGSA,A,3,01,02,03,04,05,06,07,08,09,10,11,12,1.0,1.0,1.0*30
$GPRMC,193634.514,A,3348.528,N,11755.514,W,001.9,203.0,150220,000.0,W*6B
$GPGGA,193635.514,3348.528,N,11755.514,W,1,12,1.0,0.0,M,0.0,M,,*73
$GPGSA,A,3,01,02,03,04,05,06,07,08,09,10,11,12,1.0,1.0,1.0*30
$GPRMC,193635.514,A,3348.528,N,11755.514,W,001.9,201.9,150220,000.0,W*61
$GPGGA,193636.514,3348.527,N,11755.514,W,1,12,1.0,0.0,M,0.0,M,,*7F
$GPGSA,A,3,01,02,03,04,05,06,07,08,09,10,11,12,1.0,1.0,1.0*30
$GPRMC,193636.514,A,3348.527,N,11755.514,W,001.9,201.9,150220,000.0,W*6D
$GPGGA,193637.514,3348.527,N,11755.514,W,1,12,1.0,0.0,M,0.0,M,,*7E
$GPGSA,A,3,01,02,03,04,05,06,07,08,09,10,11,12,1.0,1.0,1.0*30
$GPRMC,193637.514,A,3348.527,N,11755.514,W,001.9,201.9,150220,000.0,W*6C
$GPGGA,193638.514,3348.526,N,11755.515,W,1,12,1.0,0.0,M,0.0,M,,*71
$GPGSA,A,3,01,02,03,04,05,06,07,08,09,10,11,12,1.0,1.0,1.0*30
$GPRMC,193638.514,A,3348.526,N,11755.515,W,001.9,348.3,150220,000.0,W*65
$GPGGA,193639.514,3348.527,N,11755.515,W,1,12,1.0,0.0,M,0.0,M,,*71
$GPGSA,A,3,01,02,03,04,05,06,07,08,09,10,11,12,1.0,1.0,1.0*30
$GPRMC,193639.514,A,3348.527,N,11755.515,W,001.9,348.3,150220,000.0,W*65
$GPGGA,193640.514,3348.527,N,11755.515,W,1,12,1.0,0.0,M,0.0,M,,*7F
$GPGSA,A,3,01,02,03,04,05,06,07,08,09,10,11,12,1.0,1.0,1.0*30
$GPRMC,193640.514,A,3348.527,N,11755.515,W,001.9,348.3,150220,000.0,W*6B
$GPGGA,193641.514,3348.528,N,11755.515,W,1,12,1.0,0.0,M,0.0,M,,*71
$GPGSA,A,3,01,02,03,04,05,06,07,08,09,10,11,12,1.0,1.0,1.0*30
$GPRMC,193641.514,A,3348.528,N,11755.515,W,001.9,348.3,150220,000.0,W*65
$GPGGA,193642.514,3348.528,N,11755.515,W,1,12,1.0,0.0,M,0.0,M,,*72
$GPGSA,A,3,01,02,03,04,05,06,07,08,09,10,11,12,1.0,1.0,1.0*30
$GPRMC,193642.514,A,3348.528,N,11755.515,W,001.9,348.3,150220,000.0,W*66
$GPGGA,193643.514,3348.529,N,11755.515,W,1,12,1.0,0.0,M,0.0,M,,*72
$GPGSA,A,3,01,02,03,04,05,06,07,08,09,10,11,12,1.0,1.0,1.0*30
$GPRMC,193643.514,A,3348.529,N,11755.515,W,001.9,348.3,150220,000.0,W*66
$GPGGA,193644.514,3348.529,N,11755.515,W,1,12,1.0,0.0,M,0.0,M,,*75
$GPGSA,A,3,01,02,03,04,05,06,07,08,09,10,11,12,1.0,1.0,1.0*30
$GPRMC,193644.514,A,3348.529,N,11755.515,W,001.9,348.3,150220,000.0,W*61
$GPGGA,193645.514,3348.530,N,11755.515,W,1,12,1.0,0.0,M,0.0,M,,*7C
$GPGSA,A,3,01,02,03,04,05,06,07,08,09,10,11,12,1.0,1.0,1.0*30
$GPRMC,193645.514,A,3348.530,N,11755.515,W,001.9,348.3,150220,000.0,W*68
$GPGGA,193646.514,3348.530,N,11755.515,W,1,12,1.0,0.0,M,0.0,M,,*7F
$GPGSA,A,3,01,02,03,04,05,06,07,08,09,10,11,12,1.0,1.0,1.0*30
$GPRMC,193646.514,A,3348.530,N,11755.515,W,001.9,041.8,150220,000.0,W*6A
$GPGGA,193647.514,3348.531,N,11755.515,W,1,12,1.0,0.0,M,0.0,M,,*7F
$GPGSA,A,3,01,02,03,04,05,06,07,08,09,10,11,12,1.0,1.0,1.0*30
$GPRMC,193647.514,A,3348.531,N,11755.515,W,001.9,041.8,150220,000.0,W*6A
$GPGGA,193648.514,3348.531,N,11755.515,W,1,12,1.0,0.0,M,0.0,M,,*70
$GPGSA,A,3,01,02,03,04,05,06,07,08,09,10,11,12,1.0,1.0,1.0*30
$GPRMC,193648.514,A,3348.531,N,11755.515,W,001.9,041.8,150220,000.0,W*65
$GPGGA,193649.514,3348.532,N,11755.514,W,1,12,1.0,0.0,M,0.0,M,,*73
$GPGSA,A,3,01,02,03,04,05,06,07,08,09,10,11,12,1.0,1.0,1.0*30
$GPRMC,193649.514,A,3348.532,N,11755.514,W,001.9,041.8,150220,000.0,W*66
$GPGGA,193650.514,3348.532,N,11755.514,W,1,12,1.0,0.0,M,0.0,M,,*7B
$GPGSA,A,3,01,02,03,04,05,06,07,08,09,10,11,12,1.0,1.0,1.0*30
$GPRMC,193650.514,A,3348.532,N,11755.514,W,001.9,054.3,150220,000.0,W*61
$GPGGA,193651.514,3348.532,N,11755.513,W,1,12,1.0,0.0,M,0.0,M,,*7D
$GPGSA,A,3,01,02,03,04,05,06,07,08,09,10,11,12,1.0,1.0,1.0*30
$GPRMC,193651.514,A,3348.532,N,11755.513,W,001.9,054.3,150220,000.0,W*67
$GPGGA,193652.514,3348.533,N,11755.513,W,1,12,1.0,0.0,M,0.0,M,,*7F
$GPGSA,A,3,01,02,03,04,05,06,07,08,09,10,11,12,1.0,1.0,1.0*30
$GPRMC,193652.514,A,3348.533,N,11755.513,W,001.9,054.3,150220,000.0,W*65
$GPGGA,193653.514,3348.533,N,11755.512,W,1,12,1.0,0.0,M,0.0,M,,*7F
$GPGSA,A,3,01,02,03,04,05,06,07,08,09,10,11,12,1.0,1.0,1.0*30
$GPRMC,193653.514,A,3348.533,N,11755.512,W,001.9,054.3,150220,000.0,W*65
$GPGGA,193654.514,3348.533,N,11755.512,W,1,12,1.0,0.0,M,0.0,M,,*78
$GPGSA,A,3,01,02,03,04,05,06,07,08,09,10,11,12,1.0,1.0,1.0*30
$GPRMC,193654.514,A,3348.533,N,11755.512,W,001.9,054.3,150220,000.0,W*62
$GPGGA,193655.514,3348.534,N,11755.511,W,1,12,1.0,0.0,M,0.0,M,,*7D
$GPGSA,A,3,01,02,03,04,05,06,07,08,09,10,11,12,1.0,1.0,1.0*30
$GPRMC,193655.514,A,3348.534,N,11755.511,W,001.9,039.2,150220,000.0,W*6D
$GPGGA,193656.514,3348.534,N,11755.511,W,1,12,1.0,0.0,M,0.0,M,,*7E
$GPGSA,A,3,01,02,03,04,05,06,07,08,09,10,11,12,1.0,1.0,1.0*30
$GPRMC,193656.514,A,3348.534,N,11755.511,W,001.9,039.2,150220,000.0,W*6E
$GPGGA,193657.514,3348.535,N,11755.511,W,1,12,1.0,0.0,M,0.0,M,,*7E
$GPGSA,A,3,01,02,03,04,05,06,07,08,09,10,11,12,1.0,1.0,1.0*30
$GPRMC,193657.514,A,3348.535,N,11755.511,W,001.9,039.2,150220,000.0,W*6E
$GPGGA,193658.514,3348.535,N,11755.510,W,1,12,1.0,0.0,M,0.0,M,,*70
$GPGSA,A,3,01,02,03,04,05,06,07,08,09,10,11,12,1.0,1.0,1.0*30
$GPRMC,193658.514,A,3348.535,N,11755.510,W,001.9,039.2,150220,000.0,W*60
$GPGGA,193659.514,3348.536,N,11755.510,W,1,12,1.0,0.0,M,0.0,M,,*72
$GPGSA,A,3,01,02,03,04,05,06,07,08,09,10,11,12,1.0,1.0,1.0*30
$GPRMC,193659.514,A,3348.536,N,11755.510,W,001.9,062.2,150220,000.0,W*6C
$GPGGA,193700.514,3348.536,N,11755.509,W,1,12,1.0,0.0,M,0.0,M,,*77
$GPGSA,A,3,01,02,03,04,05,06,07,08,09,10,11,12,1.0,1.0,1.0*30
$GPRMC,193700.514,A,3348.536,N,11755.509,W,001.9,062.2,150220,000.0,W*69
$GPGGA,193701.514,3348.536,N,11755.509,W,1,12,1.0,0.0,M,0.0,M,,*76
$GPGSA,A,3,01,02,03,04,05,06,07,08,09,10,11,12,1.0,1.0,1.0*30
$GPRMC,193701.514,A,3348.536,N,11755.509,W,001.9,062.2,150220,000.0,W*68
$GPGGA,193702.514,3348.536,N,11755.508,W,1,12,1.0,0.0,M,0.0,M,,*74
$GPGSA,A,3,01,02,03,04,05,06,07,08,09,10,11,12,1.0,1.0,1.0*30
$GPRMC,193702.514,A,3348.536,N,11755.508,W,001.9,062.2,150220,000.0,W*6A
$GPGGA,193703.514,3348.537,N,11755.508,W,1,12,1.0,0.0,M,0.0,M,,*74
$GPGSA,A,3,01,02,03,04,05,06,07,08,09,10,11,12,1.0,1.0,1.0*30
$GPRMC,193703.514,A,3348.537,N,11755.508,W,001.9,103.4,150220,000.0,W*6A
$GPGGA,193704.514,3348.537,N,11755.507,W,1,12,1.0,0.0,M,0.0,M,,*7C
$GPGSA,A,3,01,02,03,04,05,06,07,08,09,10,11,12,1.0,1.0,1.0*30
$GPRMC,193704.514,A,3348.537,N,11755.507,W,001.9,103.4,150220,000.0,W*62
$GPGGA,193705.514,3348.536,N,11755.506,W,1,12,1.0,0.0,M,0.0,M,,*7D
$GPGSA,A,3,01,02,03,04,05,06,07,08,09,10,11,12,1.0,1.0,1.0*30
$GPRMC,193705.514,A,3348.536,N,11755.506,W,001.9,103.4,150220,000.0,W*63
$GPGGA,193706.514,3348.536,N,11755.506,W,1,12,1.0,0.0,M,0.0,M,,*7E
$GPGSA,A,3,01,02,03,04,05,06,07,08,09,10,11,12,1.0,1.0,1.0*30
$GPRMC,193706.514,A,3348.536,N,11755.506,W,001.9,103.4,150220,000.0,W*60
$GPGGA,193707.514,3348.536,N,11755.505,W,1,12,1.0,0.0,M,0.0,M,,*7C
$GPGSA,A,3,01,02,03,04,05,06,07,08,09,10,11,12,1.0,1.0,1.0*30
$GPRMC,193707.514,A,3348.536,N,11755.505,W,001.9,088.6,150220,000.0,W*62
$GPGGA,193708.514,3348.536,N,11755.505,W,1,12,1.0,0.0,M,0.0,M,,*73
$GPGSA,A,3,01,02,03,04,05,06,07,08,09,10,11,12,1.0,1.0,1.0*30
$GPRMC,193708.514,A,3348.536,N,11755.505,W,001.9,088.6,150220,000.0,W*6D
$GPGGA,193709.514,3348.536,N,11755.504,W,1,12,1.0,0.0,M,0.0,M,,*73
$GPGSA,A,3,01,02,03,04,05,06,07,08,09,10,11,12,1.0,1.0,1.0*30
$GPRMC,193709.514,A,3348.536,N,11755.504,W,001.9,088.6,150220,000.0,W*6D
$GPGGA,193710.514,3348.536,N,11755.503,W,1,12,1.0,0.0,M,0.0,M,,*7C
$GPGSA,A,3,01,02,03,04,05,06,07,08,09,10,11,12,1.0,1.0,1.0*30
$GPRMC,193710.514,A,3348.536,N,11755.503,W,001.9,088.6,150220,000.0,W*62
$GPGGA,193711.514,3348.536,N,11755.503,W,1,12,1.0,0.0,M,0.0,M,,*7D
$GPGSA,A,3,01,02,03,04,05,06,07,08,09,10,11,12,1.0,1.0,1.0*30
$GPRMC,193711.514,A,3348.536,N,11755.503,W,001.9,094.0,150220,000.0,W*68
$GPGGA,193712.514,3348.536,N,11755.502,W,1,12,1.0,0.0,M,0.0,M,,*7F
$GPGSA,A,3,01,02,03,04,05,06,07,08,09,10,11,12,1.0,1.0,1.0*30
$GPRMC,193712.514,A,3348.536,N,11755.502,W,001.9,094.0,150220,000.0,W*6A
$GPGGA,193713.514,3348.536,N,11755.501,W,1,12,1.0,0.0,M,0.0,M,,*7D
$GPGSA,A,3,01,02,03,04,05,06,07,08,09,10,11,12,1.0,1.0,1.0*30
$GPRMC,193713.514,A,3348.536,N,11755.501,W,001.9,094.0,150220,000.0,W*68
$GPGGA,193714.514,3348.536,N,11755.501,W,1,12,1.0,0.0,M,0.0,M,,*7A
$GPGSA,A,3,01,02,03,04,05,06,07,08,09,10,11,12,1.0,1.0,1.0*30
$GPRMC,193714.514,A,3348.536,N,11755.501,W,001.9,094.0,150220,000.0,W*6F
$GPGGA,193715.514,3348.536,N,11755.500,W,1,12,1.0,0.0,M,0.0,M,,*7A
$GPGSA,A,3,01,02,03,04,05,06,07,08,09,10,11,12,1.0,1.0,1.0*30
$GPRMC,193715.514,A,3348.536,N,11755.500,W,001.9,094.0,150220,000.0,W*6F
$GPGGA,193716.514,3348.536,N,11755.499,W,1,12,1.0,0.0,M,0.0,M,,*78
$GPGSA,A,3,01,02,03,04,05,06,07,08,09,10,11,12,1.0,1.0,1.0*30
$GPRMC,193716.514,A,3348.536,N,11755.499,W,001.9,094.0,150220,000.0,W*6D
$GPGGA,193717.514,3348.536,N,11755.499,W,1,12,1.0,0.0,M,0.0,M,,*79
$GPGSA,A,3,01,02,03,04,05,06,07,08,09,10,11,12,1.0,1.0,1.0*30
$GPRMC,193717.514,A,3348.536,N,11755.499,W,001.9,094.0,150220,000.0,W*6C
$GPGGA,193718.514,3348.536,N,11755.498,W,1,12,1.0,0.0,M,0.0,M,,*77
$GPGSA,A,3,01,02,03,04,05,06,07,08,09,10,11,12,1.0,1.0,1.0*30
$GPRMC,193718.514,A,3348.536,N,11755.498,W,001.9,139.0,150220,000.0,W*64
$GPGGA,193719.514,3348.535,N,11755.498,W,1,12,1.0,0.0,M,0.0,M,,*75
$GPGSA,A,3,01,02,03,04,05,06,07,08,09,10,11,12,1.0,1.0,1.0*30
$GPRMC,193719.514,A,3348.535,N,11755.498,W,001.9,139.0,150220,000.0,W*66
$GPGGA,193720.514,3348.535,N,11755.497,W,1,12,1.0,0.0,M,0.0,M,,*70
$GPGSA,A,3,01,02,03,04,05,06,07,08,09,10,11,12,1.0,1.0,1.0*30
$GPRMC,193720.514,A,3348.535,N,11755.497,W,001.9,139.0,150220,000.0,W*63
$GPGGA,193721.514,3348.535,N,11755.497,W,1,12,1.0,0.0,M,0.0,M,,*71
$GPGSA,A,3,01,02,03,04,05,06,07,08,09,10,11,12,1.0,1.0,1.0*30
$GPRMC,193721.514,A,3348.535,N,11755.497,W,001.9,139.0,150220,000.0,W*62
$GPGGA,193722.514,3348.534,N,11755.497,W,1,12,1.0,0.0,M,0.0,M,,*73
$GPGSA,A,3,01,02,03,04,05,06,07,08,09,10,11,12,1.0,1.0,1.0*30
$GPRMC,193722.514,A,3348.534,N,11755.497,W,001.9,139.0,150220,000.0,W*60
$GPGGA,193723.514,3348.534,N,11755.496,W,1,12,1.0,0.0,M,0.0,M,,*73
$GPGSA,A,3,01,02,03,04,05,06,07,08,09,10,11,12,1.0,1.0,1.0*30
$GPRMC,193723.514,A,3348.534,N,11755.496,W,001.9,261.1,150220,000.0,W*6F
$GPGGA,193724.514,3348.534,N,11755.497,W,1,12,1.0,0.0,M,0.0,M,,*75
$GPGSA,A,3,01,02,03,04,05,06,07,08,09,10,11,12,1.0,1.0,1.0*30
$GPRMC,193724.514,A,3348.534,N,11755.497,W,001.9,261.1,150220,000.0,W*69
$GPGGA,193725.514,3348.533,N,11755.497,W,1,12,1.0,0.0,M,0.0,M,,*73
$GPGSA,A,3,01,02,03,04,05,06,07,08,09,10,11,12,1.0,1.0,1.0*30
$GPRMC,193725.514,A,3348.533,N,11755.497,W,001.9,289.6,150220,000.0,W*6E
$GPGGA,193726.514,3348.534,N,11755.498,W,1,12,1.0,0.0,M,0.0,M,,*78
$GPGSA,A,3,01,02,03,04,05,06,07,08,09,10,11,12,1.0,1.0,1.0*30
$GPRMC,193726.514,A,3348.534,N,11755.498,W,001.9,289.6,150220,000.0,W*65
$GPGGA,193727.514,3348.534,N,11755.499,W,1,12,1.0,0.0,M,0.0,M,,*78
$GPGSA,A,3,01,02,03,04,05,06,07,08,09,10,11,12,1.0,1.0,1.0*30
$GPRMC,193727.514,A,3348.534,N,11755.499,W,001.9,289.6,150220,000.0,W*65
$GPGGA,193728.514,3348.534,N,11755.499,W,1,12,1.0,0.0,M,0.0,M,,*77
$GPGSA,A,3,01,02,03,04,05,06,07,08,09,10,11,12,1.0,1.0,1.0*30
$GPRMC,193728.514,A,3348.534,N,11755.499,W,001.9,289.6,150220,000.0,W*6A
$GPGGA,193729.514,3348.534,N,11755.500,W,1,12,1.0,0.0,M,0.0,M,,*77
$GPGSA,A,3,01,02,03,04,05,06,07,08,09,10,11,12,1.0,1.0,1.0*30
$GPRMC,193729.514,A,3348.534,N,11755.500,W,001.9,283.6,150220,000.0,W*60
$GPGGA,193730.514,3348.534,N,11755.500,W,1,12,1.0,0.0,M,0.0,M,,*7F
$GPGSA,A,3,01,02,03,04,05,06,07,08,09,10,11,12,1.0,1.0,1.0*30
$GPRMC,193730.514,A,3348.534,N,11755.500,W,001.9,283.6,150220,000.0,W*68
$GPGGA,193731.514,3348.535,N,11755.501,W,1,12,1.0,0.0,M,0.0,M,,*7E
$GPGSA,A,3,01,02,03,04,05,06,07,08,09,10,11,12,1.0,1.0,1.0*30
$GPRMC,193731.514,A,3348.535,N,11755.501,W,001.9,283.6,150220,000.0,W*69
$GPGGA,193732.514,3348.535,N,11755.502,W,1,12,1.0,0.0,M,0.0,M,,*7E
$GPGSA,A,3,01,02,03,04,05,06,07,08,09,10,11,12,1.0,1.0,1.0*30
$GPRMC,193732.514,A,3348.535,N,11755.502,W,001.9,283.6,150220,000.0,W*69
$GPGGA,193733.514,3348.535,N,11755.502,W,1,12,1.0,0.0,M,0.0,M,,*7F
$GPGSA,A,3,01,02,03,04,05,06,07,08,09,10,11,12,1.0,1.0,1.0*30
$GPRMC,193733.514,A,3348.535,N,11755.502,W,001.9,270.9,150220,000.0,W*6B
$GPGGA,193734.514,3348.535,N,11755.503,W,1,12,1.0,0.0,M,0.0,M,,*79
$GPGSA,A,3,01,02,03,04,05,06,07,08,09,10,11,12,1.0,1.0,1.0*30
$GPRMC,193734.514,A,3348.535,N,11755.503,W,001.9,270.9,150220,000.0,W*6D
$GPGGA,193735.514,3348.535,N,11755.504,W,1,12,1.0,0.0,M,0.0,M,,*7F
$GPGSA,A,3,01,02,03,04,05,06,07,08,09,10,11,12,1.0,1.0,1.0*30
$GPRMC,193735.514,A,3348.535,N,11755.504,W,001.9,270.9,150220,000.0,W*6B
$GPGGA,193736.514,3348.535,N,11755.504,W,1,12,1.0,0.0,M,0.0,M,,*7C
$GPGSA,A,3,01,02,03,04,05,06,07,08,09,10,11,12,1.0,1.0,1.0*30
$GPRMC,193736.514,A,3348.535,N,11755.504,W,001.9,270.9,150220,000.0,W*68
$GPGGA,193737.514,3348.535,N,11755.505,W,1,12,1.0,0.0,M,0.0,M,,*7C
$GPGSA,A,3,01,02,03,04,05,06,07,08,09,10,11,12,1.0,1.0,1.0*30
$GPRMC,193737.514,A,3348.535,N,11755.505,W,001.9,211.2,150220,000.0,W*64
$GPGGA,193738.514,3348.534,N,11755.505,W,1,12,1.0,0.0,M,0.0,M,,*72
$GPGSA,A,3,01,02,03,04,05,06,07,08,09,10,11,12,1.0,1.0,1.0*30
$GPRMC,193738.514,A,3348.534,N,11755.505,W,001.9,211.2,150220,000.0,W*6A
$GPGGA,193739.514,3348.534,N,11755.506,W,1,12,1.0,0.0,M,0.0,M,,*70
$GPGSA,A,3,01,02,03,04,05,06,07,08,09,10,11,12,1.0,1.0,1.0*30
$GPRMC,193739.514,A,3348.534,N,11755.506,W,001.9,211.2,150220,000.0,W*68
$GPGGA,193740.514,3348.534,N,11755.506,W,1,12,1.0,0.0,M,0.0,M,,*7E
$GPGSA,A,3,01,02,03,04,05,06,07,08,09,10,11,12,1.0,1.0,1.0*30
$GPRMC,193740.514,A,3348.534,N,11755.506,W,001.9,231.1,150220,000.0,W*67
$GPGGA,193741.514,3348.533,N,11755.506,W,1,12,1.0,0.0,M,0.0,M,,*78
$GPGSA,A,3,01,02,03,04,05,06,07,08,09,10,11,12,1.0,1.0,1.0*30
$GPRMC,193741.514,A,3348.533,N,11755.506,W,001.9,231.1,150220,000.0,W*61
$GPGGA,193742.514,3348.533,N,11755.507,W,1,12,1.0,0.0,M,0.0,M,,*7A
$GPGSA,A,3,01,02,03,04,05,06,07,08,09,10,11,12,1.0,1.0,1.0*30
$GPRMC,193742.514,A,3348.533,N,11755.507,W,001.9,231.1,150220,000.0,W*63
$GPGGA,193743.514,3348.532,N,11755.507,W,1,12,1.0,0.0,M,0.0,M,,*7A
$GPGSA,A,3,01,02,03,04,05,06,07,08,09,10,11,12,1.0,1.0,1.0*30
$GPRMC,193743.514,A,3348.532,N,11755.507,W,001.9,231.1,150220,000.0,W*63
$GPGGA,193744.514,3348.532,N,11755.508,W,1,12,1.0,0.0,M,0.0,M,,*72
$GPGSA,A,3,01,02,03,04,05,06,07,08,09,10,11,12,1.0,1.0,1.0*30
$GPRMC,193744.514,A,3348.532,N,11755.508,W,001.9,203.9,150220,000.0,W*62
$GPGGA,193745.514,3348.532,N,11755.508,W,1,12,1.0,0.0,M,0.0,M,,*73
$GPGSA,A,3,01,02,03,04,05,06,07,08,09,10,11,12,1.0,1.0,1.0*30
$GPRMC,193745.514,A,3348.532,N,11755.508,W,001.9,203.9,150220,000.0,W*63
$GPGGA,193746.514,3348.531,N,11755.508,W,1,12,1.0,0.0,M,0.0,M,,*73
$GPGSA,A,3,01,02,03,04,05,06,07,08,09,10,11,12,1.0,1.0,1.0*30
$GPRMC,193746.514,A,3348.531,N,11755.508,W,001.9,203.9,150220,000.0,W*63
$GPGGA,193747.514,3348.530,N,11755.508,W,1,12,1.0,0.0,M,0.0,M,,*73
$GPGSA,A,3,01,02,03,04,05,06,07,08,09,10,11,12,1.0,1.0,1.0*30
$GPRMC,193747.514,A,3348.530,N,11755.508,W,001.9,203.9,150220,000.0,W*63
$GPGGA,193748.514,3348.530,N,11755.509,W,1,12,1.0,0.0,M,0.0,M,,*7D
$GPGSA,A,3,01,02,03,04,05,06,07,08,09,10,11,12,1.0,1.0,1.0*30
$GPRMC,193748.514,A,3348.530,N,11755.509,W,001.9,203.9,150220,000.0,W*6D
$GPGGA,193749.514,3348.529,N,11755.509,W,1,12,1.0,0.0,M,0.0,M,,*74
$GPGSA,A,3,01,02,03,04,05,06,07,08,09,10,11,12,1.0,1.0,1.0*30
$GPRMC,193749.514,A,3348.529,N,11755.509,W,001.9,203.9,150220,000.0,W*64
$GPGGA,193750.514,3348.529,N,11755.509,W,1,12,1.0,0.0,M,0.0,M,,*7C
$GPGSA,A,3,01,02,03,04,05,06,07,08,09,10,11,12,1.0,1.0,1.0*30
$GPRMC,193750.514,A,3348.529,N,11755.509,W,001.9,197.6,150220,000.0,W*6D
$GPGGA,193751.514,3348.528,N,11755.509,W,1,12,1.0,0.0,M,0.0,M,,*7C
$GPGSA,A,3,01,02,03,04,05,06,07,08,09,10,11,12,1.0,1.0,1.0*30
$GPRMC,193751.514,A,3348.528,N,11755.509,W,001.9,197.6,150220,000.0,W*6D
$GPGGA,193752.514,3348.528,N,11755.509,W,1,12,1.0,0.0,M,0.0,M,,*7F
$GPGSA,A,3,01,02,03,04,05,06,07,08,09,10,11,12,1.0,1.0,1.0*30
$GPRMC,193752.514,A,3348.528,N,11755.509,W,001.9,197.6,150220,000.0,W*6E
$GPGGA,193753.514,3348.527,N,11755.510,W,1,12,1.0,0.0,M,0.0,M,,*79
$GPGSA,A,3,01,02,03,04,05,06,07,08,09,10,11,12,1.0,1.0,1.0*30
$GPRMC,193753.514,A,3348.527,N,11755.510,W,001.9,197.6,150220,000.0,W*68
$GPGGA,193754.514,3348.527,N,11755.510,W,1,12,1.0,0.0,M,0.0,M,,*7E
$GPGSA,A,3,01,02,03,04,05,06,07,08,09,10,11,12,1.0,1.0,1.0*30
$GPRMC,193754.514,A,3348.527,N,11755.510,W,001.9,197.6,150220,000.0,W*6F
$GPGGA,193755.514,3348.526,N,11755.510,W,1,12,1.0,0.0,M,0.0,M,,*7E
$GPGSA,A,3,01,02,03,04,05,06,07,08,09,10,11,12,1.0,1.0,1.0*30
$GPRMC,193755.514,A,3348.526,N,11755.510,W,001.9,174.7,150220,000.0,W*63
$GPGGA,193756.514,3348.526,N,11755.510,W,1,12,1.0,0.0,M,0.0,M,,*7D
$GPGSA,A,3,01,02,03,04,05,06,07,08,09,10,11,12,1.0,1.0,1.0*30
$GPRMC,193756.514,A,3348.526,N,11755.510,W,001.9,174.7,150220,000.0,W*60
$GPGGA,193757.514,3348.525,N,11755.510,W,1,12,1.0,0.0,M,0.0,M,,*7F
$GPGSA,A,3,01,02,03,04,05,06,07,08,09,10,11,12,1.0,1.0,1.0*30
$GPRMC,193757.514,A,3348.525,N,11755.510,W,001.9,174.7,150220,000.0,W*62
$GPGGA,193758.514,3348.525,N,11755.510,W,1,12,1.0,0.0,M,0.0,M,,*70
$GPGSA,A,3,01,02,03,04,05,06,07,08,09,10,11,12,1.0,1.0,1.0*30
$GPRMC,193758.514,A,3348.525,N,11755.510,W,001.9,174.7,150220,000.0,W*6D
$GPGGA,193759.514,3348.524,N,11755.510,W,1,12,1.0,0.0,M,0.0,M,,*70
$GPGSA,A,3,01,02,03,04,05,06,07,08,09,10,11,12,1.0,1.0,1.0*30
$GPRMC,193759.514,A,3348.524,N,11755.510,W,001.9,148.5,150220,000.0,W*60
$GPGGA,193800.514,3348.524,N,11755.509,W,1,12,1.0,0.0,M,0.0,M,,*7B
$GPGSA,A,3,01,02,03,04,05,06,07,08,09,10,11,12,1.0,1.0,1.0*30
$GPRMC,193800.514,A,3348.524,N,11755.509,W,001.9,148.5,150220,000.0,W*6B
$GPGGA,193801.514,3348.523,N,11755.509,W,1,12,1.0,0.0,M,0.0,M,,*7D
$GPGSA,A,3,01,02,03,04,05,06,07,08,09,10,11,12,1.0,1.0,1.0*30
$GPRMC,193801.514,A,3348.523,N,11755.509,W,001.9,148.5,150220,000.0,W*6D
$GPGGA,193802.514,3348.523,N,11755.509,W,1,12,1.0,0.0,M,0.0,M,,*7E
$GPGSA,A,3,01,02,03,04,05,06,07,08,09,10,11,12,1.0,1.0,1.0*30
$GPRMC,193802.514,A,3348.523,N,11755.509,W,001.9,148.5,150220,000.0,W*6E
$GPGGA,193803.514,3348.522,N,11755.509,W,1,12,1.0,0.0,M,0.0,M,,*7E
$GPGSA,A,3,01,02,03,04,05,06,07,08,09,10,11,12,1.0,1.0,1.0*30
$GPRMC,193803.514,A,3348.522,N,11755.509,W,001.9,148.5,150220,000.0,W*6E
$GPGGA,193804.514,3348.522,N,11755.508,W,1,12,1.0,0.0,M,0.0,M,,*78
$GPGSA,A,3,01,02,03,04,05,06,07,08,09,10,11,12,1.0,1.0,1.0*30
$GPRMC,193804.514,A,3348.522,N,11755.508,W,001.9,007.9,150220,000.0,W*6E
$GPGGA,193805.514,3348.522,N,11755.508,W,1,12,1.0,0.0,M,0.0,M,,*79
$GPGSA,A,3,01,02,03,04,05,06,07,08,09,10,11,12,1.0,1.0,1.0*30
$GPRMC,193805.514,A,3348.522,N,11755.508,W,001.9,007.9,150220,000.0,W*6F
$GPGGA,193806.514,3348.523,N,11755.508,W,1,12,1.0,0.0,M,0.0,M,,*7B
$GPGSA,A,3,01,02,03,04,05,06,07,08,09,10,11,12,1.0,1.0,1.0*30
$GPRMC,193806.514,A,3348.523,N,11755.508,W,001.9,007.9,150220,000.0,W*6D
$GPGGA,193807.514,3348.523,N,11755.508,W,1,12,1.0,0.0,M,0.0,M,,*7A
$GPGSA,A,3,01,02,03,04,05,06,07,08,09,10,11,12,1.0,1.0,1.0*30
$GPRMC,193807.514,A,3348.523,N,11755.508,W,001.9,007.9,150220,000.0,W*6C
$GPGGA,193808.514,3348.524,N,11755.508,W,1,12,1.0,0.0,M,0.0,M,,*72
$GPGSA,A,3,01,02,03,04,05,06,07,08,09,10,11,12,1.0,1.0,1.0*30
$GPRMC,193808.514,A,3348.524,N,11755.508,W,001.9,007.9,150220,000.0,W*64
$GPGGA,193809.514,3348.524,N,11755.508,W,1,12,1.0,0.0,M,0.0,M,,*73
$GPGSA,A,3,01,02,03,04,05,06,07,08,09,10,11,12,1.0,1.0,1.0*30
$GPRMC,193809.514,A,3348.524,N,11755.508,W,001.9,002.5,150220,000.0,W*6C
$GPGGA,193810.514,3348.525,N,11755.508,W,1,12,1.0,0.0,M,0.0,M,,*7A
$GPGSA,A,3,01,02,03,04,05,06,07,08,09,10,11,12,1.0,1.0,1.0*30
$GPRMC,193810.514,A,3348.525,N,11755.508,W,001.9,002.5,150220,000.0,W*65
$GPGGA,193811.514,3348.526,N,11755.508,W,1,12,1.0,0.0,M,0.0,M,,*78
$GPGSA,A,3,01,02,03,04,05,06,07,08,09,10,11,12,1.0,1.0,1.0*30
$GPRMC,193811.514,A,3348.526,N,11755.508,W,001.9,002.5,150220,000.0,W*67
$GPGGA,193812.514,3348.526,N,11755.508,W,1,12,1.0,0.0,M,0.0,M,,*7B
$GPGSA,A,3,01,02,03,04,05,06,07,08,09,10,11,12,1.0,1.0,1.0*30
$GPRMC,193812.514,A,3348.526,N,11755.508,W,001.9,002.5,150220,000.0,W*64
$GPGGA,193813.514,3348.527,N,11755.508,W,1,12,1.0,0.0,M,0.0,M,,*7B
$GPGSA,A,3,01,02,03,04,05,06,07,08,09,10,11,12,1.0,1.0,1.0*30
$GPRMC,193813.514,A,3348.527,N,11755.508,W,001.9,002.5,150220,000.0,W*64
$GPGGA,193814.514,3348.527,N,11755.508,W,1,12,1.0,0.0,M,0.0,M,,*7C
$GPGSA,A,3,01,02,03,04,05,06,07,08,09,10,11,12,1.0,1.0,1.0*30
$GPRMC,193814.514,A,3348.527,N,11755.508,W,001.9,112.8,150220,000.0,W*6E
$GPGGA,193815.514,3348.527,N,11755.507,W,1,12,1.0,0.0,M,0.0,M,,*72
$GPGSA,A,3,01,02,03,04,05,06,07,08,09,10,11,12,1.0,1.0,1.0*30
$GPRMC,193815.514,A,3348.527,N,11755.507,W,001.9,112.8,150220,000.0,W*60
$GPGGA,193816.514,3348.527,N,11755.507,W,1,12,1.0,0.0,M,0.0,M,,*71
$GPGSA,A,3,01,02,03,04,05,06,07,08,09,10,11,12,1.0,1.0,1.0*30
$GPRMC,193816.514,A,3348.527,N,11755.507,W,001.9,330.7,150220,000.0,W*6E
$GPGGA,193817.514,3348.527,N,11755.507,W,1,12,1.0,0.0,M,0.0,M,,*70
$GPGSA,A,3,01,02,03,04,05,06,07,08,09,10,11,12,1.0,1.0,1.0*30
$GPRMC,193817.514,A,3348.527,N,11755.507,W,001.9,330.7,150220,000.0,W*6F
$GPGGA,193818.514,3348.528,N,11755.507,W,1,12,1.0,0.0,M,0.0,M,,*70
$GPGSA,A,3,01,02,03,04,05,06,07,08,09,10,11,12,1.0,1.0,1.0*30
$GPRMC,193818.514,A,3348.528,N,11755.507,W,001.9,330.7,150220,000.0,W*6F
$GPGGA,193819.514,3348.528,N,11755.507,W,1,12,1.0,0.0,M,0.0,M,,*71
$GPGSA,A,3,01,02,03,04,05,06,07,08,09,10,11,12,1.0,1.0,1.0*30
$GPRMC,193819.514,A,3348.528,N,11755.507,W,001.9,330.7,150220,000.0,W*6E
$GPGGA,193820.514,3348.529,N,11755.508,W,1,12,1.0,0.0,M,0.0,M,,*75
$GPGSA,A,3,01,02,03,04,05,06,07,08,09,10,11,12,1.0,1.0,1.0*30
$GPRMC,193820.514,A,3348.529,N,11755.508,W,001.9,069.5,150220,000.0,W*67
$GPGGA,193821.514,3348.529,N,11755.507,W,1,12,1.0,0.0,M,0.0,M,,*7B
$GPGSA,A,3,01,02,03,04,05,06,07,08,09,10,11,12,1.0,1.0,1.0*30
$GPRMC,193821.514,A,3348.529,N,11755.507,W,001.9,069.5,150220,000.0,W*69
$GPGGA,193822.514,3348.529,N,11755.506,W,1,12,1.0,0.0,M,0.0,M,,*79
$GPGSA,A,3,01,02,03,04,05,06,07,08,09,10,11,12,1.0,1.0,1.0*30
$GPRMC,193822.514,A,3348.529,N,11755.506,W,001.9,069.5,150220,000.0,W*6B
$GPGGA,193823.514,3348.529,N,11755.506,W,1,12,1.0,0.0,M,0.0,M,,*78
$GPGSA,A,3,01,02,03,04,05,06,07,08,09,10,11,12,1.0,1.0,1.0*30
$GPRMC,193823.514,A,3348.529,N,11755.506,W,001.9,069.5,150220,000.0,W*6A
$GPGGA,193824.514,3348.530,N,11755.505,W,1,12,1.0,0.0,M,0.0,M,,*74
$GPGSA,A,3,01,02,03,04,05,06,07,08,09,10,11,12,1.0,1.0,1.0*30
$GPRMC,193824.514,A,3348.530,N,11755.505,W,001.9,069.5,150220,000.0,W*66
$GPGGA,193825.514,3348.530,N,11755.505,W,1,12,1.0,0.0,M,0.0,M,,*75
$GPGSA,A,3,01,02,03,04,05,06,07,08,09,10,11,12,1.0,1.0,1.0*30
$GPRMC,193825.514,A,3348.530,N,11755.505,W,001.9,069.5,150220,000.0,W*67
$GPGGA,193826.514,3348.530,N,11755.504,W,1,12,1.0,0.0,M,0.0,M,,*77
$GPGSA,A,3,01,02,03,04,05,06,07,08,09,10,11,12,1.0,1.0,1.0*30
$GPRMC,193826.514,A,3348.530,N,11755.504,W,001.9,069.5,150220,000.0,W*65
$GPGGA,193827.514,3348.530,N,11755.504,W,1,12,1.0,0.0,M,0.0,M,,*76
$GPGSA,A,3,01,02,03,04,05,06,07,08,09,10,11,12,1.0,1.0,1.0*30
$GPRMC,193827.514,A,3348.530,N,11755.504,W,001.9,069.5,150220,000.0,W*64
$GPGGA,193828.514,3348.530,N,11755.503,W,1,12,1.0,0.0,M,0.0,M,,*7E
$GPGSA,A,3,01,02,03,04,05,06,07,08,09,10,11,12,1.0,1.0,1.0*30
$GPRMC,193828.514,A,3348.530,N,11755.503,W,001.9,069.5,150220,000.0,W*6C
$GPGGA,193829.514,3348.531,N,11755.502,W,1,12,1.0,0.0,M,0.0,M,,*7F
$GPGSA,A,3,01,02,03,04,05,06,07,08,09,10,11,12,1.0,1.0,1.0*30
$GPRMC,193829.514,A,3348.531,N,11755.502,W,001.9,069.5,150220,000.0,W*6D
$GPGGA,193830.514,3348.531,N,11755.502,W,1,12,1.0,0.0,M,0.0,M,,*77
$GPGSA,A,3,01,02,03,04,05,06,07,08,09,10,11,12,1.0,1.0,1.0*30
$GPRMC,193830.514,A,3348.531,N,11755.502,W,001.9,069.5,150220,000.0,W*65
$GPGGA,193831.514,3348.531,N,11755.501,W,1,12,1.0,0.0,M,0.0,M,,*75
$GPGSA,A,3,01,02,03,04,05,06,07,08,09,10,11,12,1.0,1.0,1.0*30
$GPRMC,193831.514,A,3348.531,N,11755.501,W,001.9,069.5,150220,000.0,W*67
$GPGGA,193832.514,3348.531,N,11755.501,W,1,12,1.0,0.0,M,0.0,M,,*76
$GPGSA,A,3,01,02,03,04,05,06,07,08,09,10,11,12,1.0,1.0,1.0*30
$GPRMC,193832.514,A,3348.531,N,11755.501,W,001.9,069.5,150220,000.0,W*64
$GPGGA,193833.514,3348.532,N,11755.500,W,1,12,1.0,0.0,M,0.0,M,,*75
$GPGSA,A,3,01,02,03,04,05,06,07,08,09,10,11,12,1.0,1.0,1.0*30
$GPRMC,193833.514,A,3348.532,N,11755.500,W,001.9,135.1,150220,000.0,W*6B
$GPGGA,193834.514,3348.531,N,11755.500,W,1,12,1.0,0.0,M,0.0,M,,*71
$GPGSA,A,3,01,02,03,04,05,06,07,08,09,10,11,12,1.0,1.0,1.0*30
$GPRMC,193834.514,A,3348.531,N,11755.500,W,001.9,135.1,150220,000.0,W*6F
$GPGGA,193835.514,3348.531,N,11755.499,W,1,12,1.0,0.0,M,0.0,M,,*71
$GPGSA,A,3,01,02,03,04,05,06,07,08,09,10,11,12,1.0,1.0,1.0*30
$GPRMC,193835.514,A,3348.531,N,11755.499,W,001.9,135.1,150220,000.0,W*6F
$GPGGA,193836.514,3348.530,N,11755.499,W,1,12,1.0,0.0,M,0.0,M,,*73
$GPGSA,A,3,01,02,03,04,05,06,07,08,09,10,11,12,1.0,1.0,1.0*30
$GPRMC,193836.514,A,3348.530,N,11755.499,W,001.9,135.1,150220,000.0,W*6D
$GPGGA,193837.514,3348.530,N,11755.498,W,1,12,1.0,0.0,M,0.0,M,,*73
$GPGSA,A,3,01,02,03,04,05,06,07,08,09,10,11,12,1.0,1.0,1.0*30
$GPRMC,193837.514,A,3348.530,N,11755.498,W,001.9,135.1,150220,000.0,W*6D
$GPGGA,193838.514,3348.529,N,11755.498,W,1,12,1.0,0.0,M,0.0,M,,*74
$GPGSA,A,3,01,02,03,04,05,06,07,08,09,10,11,12,1.0,1.0,1.0*30
$GPRMC,193838.514,A,3348.529,N,11755.498,W,001.9,135.1,150220,000.0,W*6A
$GPGGA,193839.514,3348.529,N,11755.497,W,1,12,1.0,0.0,M,0.0,M,,*7A
$GPGSA,A,3,01,02,03,04,05,06,07,08,09,10,11,12,1.0,1.0,1.0*30
$GPRMC,193839.514,A,3348.529,N,11755.497,W,001.9,135.1,150220,000.0,W*64
$GPGGA,193840.514,3348.529,N,11755.497,W,1,12,1.0,0.0,M,0.0,M,,*74
$GPGSA,A,3,01,02,03,04,05,06,07,08,09,10,11,12,1.0,1.0,1.0*30
$GPRMC,193840.514,A,3348.529,N,11755.497,W,001.9,135.1,150220,000.0,W*6A
$GPGGA,193841.514,3348.528,N,11755.497,W,1,12,1.0,0.0,M,0.0,M,,*74
$GPGSA,A,3,01,02,03,04,05,06,07,08,09,10,11,12,1.0,1.0,1.0*30
$GPRMC,193841.514,A,3348.528,N,11755.497,W,001.9,169.4,150220,000.0,W*66
$GPGGA,193842.514,3348.528,N,11755.497,W,1,12,1.0,0.0,M,0.0,M,,*77
$GPGSA,A,3,01,02,03,04,05,06,07,08,09,10,11,12,1.0,1.0,1.0*30
$GPRMC,193842.514,A,3348.528,N,11755.497,W,001.9,169.4,150220,000.0,W*65
$GPGGA,193843.514,3348.527,N,11755.496,W,1,12,1.0,0.0,M,0.0,M,,*78
$GPGSA,A,3,01,02,03,04,05,06,07,08,09,10,11,12,1.0,1.0,1.0*30
$GPRMC,193843.514,A,3348.527,N,11755.496,W,001.9,169.4,150220,000.0,W*6A
$GPGGA,193844.514,3348.527,N,11755.496,W,1,12,1.0,0.0,M,0.0,M,,*7F
$GPGSA,A,3,01,02,03,04,05,06,07,08,09,10,11,12,1.0,1.0,1.0*30
$GPRMC,193844.514,A,3348.527,N,11755.496,W,001.9,169.4,150220,000.0,W*6D
$GPGGA,193845.514,3348.526,N,11755.496,W,1,12,1.0,0.0,M,0.0,M,,*7F
$GPGSA,A,3,01,02,03,04,05,06,07,08,09,10,11,12,1.0,1.0,1.0*30
$GPRMC,193845.514,A,3348.526,N,11755.496,W,001.9,169.4,150220,000.0,W*6D
$GPGGA,193846.514,3348.526,N,11755.496,W,1,12,1.0,0.0,M,0.0,M,,*7C
$GPGSA,A,3,01,02,03,04,05,06,07,08,09,10,11,12,1.0,1.0,1.0*30
$GPRMC,193846.514,A,3348.526,N,11755.496,W,001.9,169.4,150220,000.0,W*6E
$GPGGA,193847.514,3348.525,N,11755.496,W,1,12,1.0,0.0,M,0.0,M,,*7E
$GPGSA,A,3,01,02,03,04,05,06,07,08,09,10,11,12,1.0,1.0,1.0*30
$GPRMC,193847.514,A,3348.525,N,11755.496,W,001.9,169.4,150220,000.0,W*6C
$GPGGA,193848.514,3348.524,N,11755.496,W,1,12,1.0,0.0,M,0.0,M,,*70
$GPGSA,A,3,01,02,03,04,05,06,07,08,09,10,11,12,1.0,1.0,1.0*30
$GPRMC,193848.514,A,3348.524,N,11755.496,W,001.9,169.4,150220,000.0,W*62
$GPGGA,193849.514,3348.524,N,11755.496,W,1,12,1.0,0.0,M,0.0,M,,*71
$GPGSA,A,3,01,02,03,04,05,06,07,08,09,10,11,12,1.0,1.0,1.0*30
$GPRMC,193849.514,A,3348.524,N,11755.496,W,001.9,169.4,150220,000.0,W*63
$GPGGA,193850.514,3348.523,N,11755.496,W,1,12,1.0,0.0,M,0.0,M,,*7E
$GPGSA,A,3,01,02,03,04,05,06,07,08,09,10,11,12,1.0,1.0,1.0*30
$GPRMC,193850.514,A,3348.523,N,11755.496,W,001.9,169.4,150220,000.0,W*6C
$GPGGA,193851.514,3348.523,N,11755.496,W,1,12,1.0,0.0,M,0.0,M,,*7F
$GPGSA,A,3,01,02,03,04,05,06,07,08,09,10,11,12,1.0,1.0,1.0*30
$GPRMC,193851.514,A,3348.523,N,11755.496,W,001.9,247.5,150220,000.0,W*63
$GPGGA,193852.514,3348.523,N,11755.496,W,1,12,1.0,0.0,M,0.0,M,,*7C
$GPGSA,A,3,01,02,03,04,05,06,07,08,09,10,11,12,1.0,1.0,1.0*30
$GPRMC,193852.514,A,3348.523,N,11755.496,W,001.9,247.5,150220,000.0,W*60
$GPGGA,193853.514,3348.522,N,11755.497,W,1,12,1.0,0.0,M,0.0,M,,*7D
$GPGSA,A,3,01,02,03,04,05,06,07,08,09,10,11,12,1.0,1.0,1.0*30
$GPRMC,193853.514,A,3348.522,N,11755.497,W,001.9,247.5,150220,000.0,W*61
$GPGGA,193854.514,3348.522,N,11755.497,W,1,12,1.0,0.0,M,0.0,M,,*7A
$GPGSA,A,3,01,02,03,04,05,06,07,08,09,10,11,12,1.0,1.0,1.0*30
$GPRMC,193854.514,A,3348.522,N,11755.497,W,001.9,247.5,150220,000.0,W*66
$GPGGA,193855.514,3348.522,N,11755.498,W,1,12,1.0,0.0,M,0.0,M,,*74
$GPGSA,A,3,01,02,03,04,05,06,07,08,09,10,11,12,1.0,1.0,1.0*30
$GPRMC,193855.514,A,3348.522,N,11755.498,W,001.9,247.5,150220,000.0,W*68
$GPGGA,193856.514,3348.522,N,11755.499,W,1,12,1.0,0.0,M,0.0,M,,*76
$GPGSA,A,3,01,02,03,04,05,06,07,08,09,10,11,12,1.0,1.0,1.0*30
$GPRMC,193856.514,A,3348.522,N,11755.499,W,001.9,247.5,150220,000.0,W*6A
$GPGGA,193857.514,3348.521,N,11755.499,W,1,12,1.0,0.0,M,0.0,M,,*74
$GPGSA,A,3,01,02,03,04,05,06,07,08,09,10,11,12,1.0,1.0,1.0*30
$GPRMC,193857.514,A,3348.521,N,11755.499,W,001.9,247.5,150220,000.0,W*68
$GPGGA,193858.514,3348.521,N,11755.500,W,1,12,1.0,0.0,M,0.0,M,,*7A
$GPGSA,A,3,01,02,03,04,05,06,07,08,09,10,11,12,1.0,1.0,1.0*30
$GPRMC,193858.514,A,3348.521,N,11755.500,W,001.9,247.5,150220,000.0,W*66
$GPGGA,193859.514,3348.521,N,11755.500,W,1,12,1.0,0.0,M,0.0,M,,*7B
$GPGSA,A,3,01,02,03,04,05,06,07,08,09,10,11,12,1.0,1.0,1.0*30
$GPRMC,193859.514,A,3348.521,N,11755.500,W,001.9,247.5,150220,000.0,W*67
$GPGGA,193900.514,3348.521,N,11755.501,W,1,12,1.0,0.0,M,0.0,M,,*77
$GPGSA,A,3,01,02,03,04,05,06,07,08,09,10,11,12,1.0,1.0,1.0*30
$GPRMC,193900.514,A,3348.521,N,11755.501,W,001.9,247.5,150220,000.0,W*6B
$GPGGA,193901.514,3348.520,N,11755.501,W,1,12,1.0,0.0,M,0.0,M,,*77
$GPGSA,A,3,01,02,03,04,05,06,07,08,09,10,11,12,1.0,1.0,1.0*30
$GPRMC,193901.514,A,3348.520,N,11755.501,W,001.9,247.5,150220,000.0,W*6B
$GPGGA,193902.514,3348.520,N,11755.502,W,1,12,1.0,0.0,M,0.0,M,,*77
$GPGSA,A,3,01,02,03,04,05,06,07,08,09,10,11,12,1.0,1.0,1.0*30
$GPRMC,193902.514,A,3348.520,N,11755.502,W,001.9,247.5,150220,000.0,W*6B
$GPGGA,193903.514,3348.520,N,11755.503,W,1,12,1.0,0.0,M,0.0,M,,*77
$GPGSA,A,3,01,02,03,04,05,06,07,08,09,10,11,12,1.0,1.0,1.0*30
$GPRMC,193903.514,A,3348.520,N,11755.503,W,001.9,034.0,150220,000.0,W*68
$GPGGA,193904.514,3348.520,N,11755.502,W,1,12,1.0,0.0,M,0.0,M,,*71
$GPGSA,A,3,01,02,03,04,05,06,07,08,09,10,11,12,1.0,1.0,1.0*30
$GPRMC,193904.514,A,3348.520,N,11755.502,W,001.9,034.0,150220,000.0,W*6E
$GPGGA,193905.514,3348.521,N,11755.502,W,1,12,1.0,0.0,M,0.0,M,,*71
$GPGSA,A,3,01,02,03,04,05,06,07,08,09,10,11,12,1.0,1.0,1.0*30
$GPRMC,193905.514,A,3348.521,N,11755.502,W,001.9,034.0,150220,000.0,W*6E
$GPGGA,193906.514,3348.521,N,11755.502,W,1,12,1.0,0.0,M,0.0,M,,*72
$GPGSA,A,3,01,02,03,04,05,06,07,08,09,10,11,12,1.0,1.0,1.0*30
$GPRMC,193906.514,A,3348.521,N,11755.502,W,001.9,034.0,150220,000.0,W*6D
$GPGGA,193907.514,3348.522,N,11755.501,W,1,12,1.0,0.0,M,0.0,M,,*73
$GPGSA,A,3,01,02,03,04,05,06,07,08,09,10,11,12,1.0,1.0,1.0*30
$GPRMC,193907.514,A,3348.522,N,11755.501,W,001.9,070.8,150220,000.0,W*64
$GPGGA,193908.514,3348.522,N,11755.501,W,1,12,1.0,0.0,M,0.0,M,,*7C
$GPGSA,A,3,01,02,03,04,05,06,07,08,09,10,11,12,1.0,1.0,1.0*30
$GPRMC,193908.514,A,3348.522,N,11755.501,W,001.9,070.8,150220,000.0,W*6B
$GPGGA,193909.514,3348.522,N,11755.500,W,1,12,1.0,0.0,M,0.0,M,,*7C
$GPGSA,A,3,01,02,03,04,05,06,07,08,09,10,11,12,1.0,1.0,1.0*30
$GPRMC,193909.514,A,3348.522,N,11755.500,W,001.9,070.8,150220,000.0,W*6B
$GPGGA,193910.514,3348.523,N,11755.500,W,1,12,1.0,0.0,M,0.0,M,,*75
$GPGSA,A,3,01,02,03,04,05,06,07,08,09,10,11,12,1.0,1.0,1.0*30
$GPRMC,193910.514,A,3348.523,N,11755.500,W,001.9,070.8,150220,000.0,W*62
$GPGGA,193911.514,3348.523,N,11755.499,W,1,12,1.0,0.0,M,0.0,M,,*75
$GPGSA,A,3,01,02,03,04,05,06,07,08,09,10,11,12,1.0,1.0,1.0*30
$GPRMC,193911.514,A,3348.523,N,11755.499,W,001.9,070.8,150220,000.0,W*62
$GPGGA,193912.514,3348.523,N,11755.498,W,1,12,1.0,0.0,M,0.0,M,,*77
$GPGSA,A,3,01,02,03,04,05,06,07,08,09,10,11,12,1.0,1.0,1.0*30
$GPRMC,193912.514,A,3348.523,N,11755.498,W,001.9,247.3,150220,000.0,W*6D
$GPGGA,193913.514,3348.523,N,11755.499,W,1,12,1.0,0.0,M,0.0,M,,*77
$GPGSA,A,3,01,02,03,04,05,06,07,08,09,10,11,12,1.0,1.0,1.0*30
$GPRMC,193913.514,A,3348.523,N,11755.499,W,001.9,247.3,150220,000.0,W*6D
$GPGGA,193914.514,3348.522,N,11755.500,W,1,12,1.0,0.0,M,0.0,M,,*70
$GPGSA,A,3,01,02,03,04,05,06,07,08,09,10,11,12,1.0,1.0,1.0*30
$GPRMC,193914.514,A,3348.522,N,11755.500,W,001.9,247.3,150220,000.0,W*6A
$GPGGA,193915.514,3348.522,N,11755.500,W,1,12,1.0,0.0,M,0.0,M,,*71
$GPGSA,A,3,01,02,03,04,05,06,07,08,09,10,11,12,1.0,1.0,1.0*30
$GPRMC,193915.514,A,3348.522,N,11755.500,W,001.9,247.3,150220,000.0,W*6B
$GPGGA,193916.514,3348.522,N,11755.501,W,1,12,1.0,0.0,M,0.0,M,,*73
$GPGSA,A,3,01,02,03,04,05,06,07,08,09,10,11,12,1.0,1.0,1.0*30
$GPRMC,193916.514,A,3348.522,N,11755.501,W,001.9,247.3,150220,000.0,W*69
$GPGGA,193917.514,3348.522,N,11755.501,W,1,12,1.0,0.0,M,0.0,M,,*72
$GPGSA,A,3,01,02,03,04,05,06,07,08,09,10,11,12,1.0,1.0,1.0*30
$GPRMC,193917.514,A,3348.522,N,11755.501,W,001.9,247.3,150220,000.0,W*68
$GPGGA,193918.514,3348.521,N,11755.502,W,1,12,1.0,0.0,M,0.0,M,,*7D
$GPGSA,A,3,01,02,03,04,05,06,07,08,09,10,11,12,1.0,1.0,1.0*30
$GPRMC,193918.514,A,3348.521,N,11755.502,W,001.9,247.3,150220,000.0,W*67
$GPGGA,193919.514,3348.521,N,11755.502,W,1,12,1.0,0.0,M,0.0,M,,*7C
$GPGSA,A,3,01,02,03,04,05,06,07,08,09,10,11,12,1.0,1.0,1.0*30
$GPRMC,193919.514,A,3348.521,N,11755.502,W,001.9,247.3,150220,000.0,W*66
$GPGGA,193920.514,3348.521,N,11755.503,W,1,12,1.0,0.0,M,0.0,M,,*77
$GPGSA,A,3,01,02,03,04,05,06,07,08,09,10,11,12,1.0,1.0,1.0*30
$GPRMC,193920.514,A,3348.521,N,11755.503,W,001.9,247.3,150220,000.0,W*6D
$GPGGA,193921.514,3348.521,N,11755.504,W,1,12,1.0,0.0,M,0.0,M,,*71
$GPGSA,A,3,01,02,03,04,05,06,07,08,09,10,11,12,1.0,1.0,1.0*30
$GPRMC,193921.514,A,3348.521,N,11755.504,W,001.9,247.3,150220,000.0,W*6B
$GPGGA,193922.514,3348.520,N,11755.504,W,1,12,1.0,0.0,M,0.0,M,,*73
$GPGSA,A,3,01,02,03,04,05,06,07,08,09,10,11,12,1.0,1.0,1.0*30
$GPRMC,193922.514,A,3348.520,N,11755.504,W,001.9,310.8,150220,000.0,W*61
$GPGGA,193923.514,3348.521,N,11755.505,W,1,12,1.0,0.0,M,0.0,M,,*72
$GPGSA,A,3,01,02,03,04,05,06,07,08,09,10,11,12,1.0,1.0,1.0*30
$GPRMC,193923.514,A,3348.521,N,11755.505,W,001.9,310.8,150220,000.0,W*60
$GPGGA,193924.514,3348.521,N,11755.505,W,1,12,1.0,0.0,M,0.0,M,,*75
$GPGSA,A,3,01,02,03,04,05,06,07,08,09,10,11,12,1.0,1.0,1.0*30
$GPRMC,193924.514,A,3348.521,N,11755.505,W,001.9,310.8,150220,000.0,W*67
$GPGGA,193925.514,3348.522,N,11755.506,W,1,12,1.0,0.0,M,0.0,M,,*74
$GPGSA,A,3,01,02,03,04,05,06,07,08,09,10,11,12,1.0,1.0,1.0*30
$GPRMC,193925.514,A,3348.522,N,11755.506,W,001.9,310.8,150220,000.0,W*66
$GPGGA,193926.514,3348.522,N,11755.506,W,1,12,1.0,0.0,M,0.0,M,,*77
$GPGSA,A,3,01,02,03,04,05,06,07,08,09,10,11,12,1.0,1.0,1.0*30
$GPRMC,193926.514,A,3348.522,N,11755.506,W,001.9,310.8,150220,000.0,W*65
$GPGGA,193927.514,3348.522,N,11755.506,W,1,12,1.0,0.0,M,0.0,M,,*76
$GPGSA,A,3,01,02,03,04,05,06,07,08,09,10,11,12,1.0,1.0,1.0*30
$GPRMC,193927.514,A,3348.522,N,11755.506,W,001.9,004.8,150220,000.0,W*62
$GPGGA,193928.514,3348.523,N,11755.506,W,1,12,1.0,0.0,M,0.0,M,,*78
$GPGSA,A,3,01,02,03,04,05,06,07,08,09,10,11,12,1.0,1.0,1.0*30
$GPRMC,193928.514,A,3348.523,N,11755.506,W,001.9,004.8,150220,000.0,W*6C
$GPGGA,193929.514,3348.524,N,11755.506,W,1,12,1.0,0.0,M,0.0,M,,*7E
$GPGSA,A,3,01,02,03,04,05,06,07,08,09,10,11,12,1.0,1.0,1.0*30
$GPRMC,193929.514,A,3348.524,N,11755.506,W,001.9,004.8,150220,000.0,W*6A
$GPGGA,193930.514,3348.524,N,11755.506,W,1,12,1.0,0.0,M,0.0,M,,*76
$GPGSA,A,3,01,02,03,04,05,06,07,08,09,10,11,12,1.0,1.0,1.0*30
$GPRMC,193930.514,A,3348.524,N,11755.506,W,001.9,004.8,150220,000.0,W*62
$GPGGA,193931.514,3348.525,N,11755.506,W,1,12,1.0,0.0,M,0.0,M,,*76
$GPGSA,A,3,01,02,03,04,05,06,07,08,09,10,11,12,1.0,1.0,1.0*30
$GPRMC,193931.514,A,3348.525,N,11755.506,W,001.9,004.8,150220,000.0,W*62
$GPGGA,193932.514,3348.525,N,11755.506,W,1,12,1.0,0.0,M,0.0,M,,*75
$GPGSA,A,3,01,02,03,04,05,06,07,08,09,10,11,12,1.0,1.0,1.0*30
$GPRMC,193932.514,A,3348.525,N,11755.506,W,001.9,004.8,150220,000.0,W*61
$GPGGA,193933.514,3348.526,N,11755.506,W,1,12,1.0,0.0,M,0.0,M,,*77
$GPGSA,A,3,01,02,03,04,05,06,07,08,09,10,11,12,1.0,1.0,1.0*30
$GPRMC,193933.514,A,3348.526,N,11755.506,W,001.9,120.1,150220,000.0,W*6D
$GPGGA,193934.514,3348.525,N,11755.506,W,1,12,1.0,0.0,M,0.0,M,,*73
$GPGSA,A,3,01,02,03,04,05,06,07,08,09,10,11,12,1.0,1.0,1.0*30
$GPRMC,193934.514,A,3348.525,N,11755.506,W,001.9,120.1,150220,000.0,W*69
$GPGGA,193935.514,3348.525,N,11755.505,W,1,12,1.0,0.0,M,0.0,M,,*71
$GPGSA,A,3,01,02,03,04,05,06,07,08,09,10,11,12,1.0,1.0,1.0*30
$GPRMC,193935.514,A,3348.525,N,11755.505,W,001.9,120.1,150220,000.0,W*6B
$GPGGA,193936.514,3348.525,N,11755.505,W,1,12,1.0,0.0,M,0.0,M,,*72
$GPGSA,A,3,01,02,03,04,05,06,07,08,09,10,11,12,1.0,1.0,1.0*30
$GPRMC,193936.514,A,3348.525,N,11755.505,W,001.9,086.1,150220,000.0,W*65
$GPGGA,193937.514,3348.525,N,11755.504,W,1,12,1.0,0.0,M,0.0,M,,*72
$GPGSA,A,3,01,02,03,04,05,06,07,08,09,10,11,12,1.0,1.0,1.0*30
$GPRMC,193937.514,A,3348.525,N,11755.504,W,001.9,086.1,150220,000.0,W*65
$GPGGA,193938.514,3348.525,N,11755.503,W,1,12,1.0,0.0,M,0.0,M,,*7A
$GPGSA,A,3,01,02,03,04,05,06,07,08,09,10,11,12,1.0,1.0,1.0*30
$GPRMC,193938.514,A,3348.525,N,11755.503,W,001.9,086.1,150220,000.0,W*6D
$GPGGA,193939.514,3348.525,N,11755.503,W,1,12,1.0,0.0,M,0.0,M,,*7B
$GPGSA,A,3,01,02,03,04,05,06,07,08,09,10,11,12,1.0,1.0,1.0*30
$GPRMC,193939.514,A,3348.525,N,11755.503,W,001.9,086.1,150220,000.0,W*6C
$GPGGA,193940.514,3348.525,N,11755.502,W,1,12,1.0,0.0,M,0.0,M,,*74
$GPGSA,A,3,01,02,03,04,05,06,07,08,09,10,11,12,1.0,1.0,1.0*30
$GPRMC,193940.514,A,3348.525,N,11755.502,W,001.9,086.1,150220,000.0,W*63
$GPGGA,193941.514,3348.525,N,11755.501,W,1,12,1.0,0.0,M,0.0,M,,*76
$GPGSA,A,3,01,02,03,04,05,06,07,08,09,10,11,12,1.0,1.0,1.0*30
$GPRMC,193941.514,A,3348.525,N,11755.501,W,001.9,086.1,150220,000.0,W*61
$GPGGA,193942.514,3348.525,N,11755.501,W,1,12,1.0,0.0,M,0.0,M,,*75
$GPGSA,A,3,01,02,03,04,05,06,07,08,09,10,11,12,1.0,1.0,1.0*30
$GPRMC,193942.514,A,3348.525,N,11755.501,W,001.9,086.1,150220,000.0,W*62
$GPGGA,193943.514,3348.525,N,11755.500,W,1,12,1.0,0.0,M,0.0,M,,*75
$GPGSA,A,3,01,02,03,04,05,06,07,08,09,10,11,12,1.0,1.0,1.0*30
$GPRMC,193943.514,A,3348.525,N,11755.500,W,001.9,086.1,150220,000.0,W*62
$GPGGA,193944.514,3348.525,N,11755.499,W,1,12,1.0,0.0,M,0.0,M,,*73
$GPGSA,A,3,01,02,03,04,05,06,07,08,09,10,11,12,1.0,1.0,1.0*30
$GPRMC,193944.514,A,3348.525,N,11755.499,W,001.9,086.1,150220,000.0,W*64
$GPGGA,193945.514,3348.525,N,11755.499,W,1,12,1.0,0.0,M,0.0,M,,*72
$GPGSA,A,3,01,02,03,04,05,06,07,08,09,10,11,12,1.0,1.0,1.0*30
$GPRMC,193945.514,A,3348.525,N,11755.499,W,001.9,086.1,150220,000.0,W*65
$GPGGA,193946.514,3348.525,N,11755.498,W,1,12,1.0,0.0,M,0.0,M,,*70
$GPGSA,A,3,01,02,03,04,05,06,07,08,09,10,11,12,1.0,1.0,1.0*30
$GPRMC,193946.514,A,3348.525,N,11755.498,W,001.9,056.2,150220,000.0,W*69
$GPGGA,193947.514,3348.526,N,11755.498,W,1,12,1.0,0.0,M,0.0,M,,*72
$GPGSA,A,3,01,02,03,04,05,06,07,08,09,10,11,12,1.0,1.0,1.0*30
$GPRMC,193947.514,A,3348.526,N,11755.498,W,001.9,056.2,150220,000.0,W*6B
$GPGGA,193948.514,3348.526,N,11755.497,W,1,12,1.0,0.0,M,0.0,M,,*72
$GPGSA,A,3,01,02,03,04,05,06,07,08,09,10,11,12,1.0,1.0,1.0*30
$GPRMC,193948.514,A,3348.526,N,11755.497,W,001.9,056.2,150220,000.0,W*6B
$GPGGA,193949.514,3348.526,N,11755.497,W,1,12,1.0,0.0,M,0.0,M,,*73
$GPGSA,A,3,01,02,03,04,05,06,07,08,09,10,11,12,1.0,1.0,1.0*30
$GPRMC,193949.514,A,3348.526,N,11755.497,W,001.9,056.2,150220,000.0,W*6A
$GPGGA,193950.514,3348.527,N,11755.496,W,1,12,1.0,0.0,M,0.0,M,,*7B
$GPGSA,A,3,01,02,03,04,05,06,07,08,09,10,11,12,1.0,1.0,1.0*30
$GPRMC,193950.514,A,3348.527,N,11755.496,W,001.9,056.2,150220,000.0,W*62
$GPGGA,193951.514,3348.527,N,11755.496,W,1,12,1.0,0.0,M,0.0,M,,*7A
$GPGSA,A,3,01,02,03,04,05,06,07,08,09,10,11,12,1.0,1.0,1.0*30
$GPRMC,193951.514,A,3348.527,N,11755.496,W,001.9,056.2,150220,000.0,W*63
$GPGGA,193952.514,3348.527,N,11755.495,W,1,12,1.0,0.0,M,0.0,M,,*7A
$GPGSA,A,3,01,02,03,04,05,06,07,08,09,10,11,12,1.0,1.0,1.0*30
$GPRMC,193952.514,A,3348.527,N,11755.495,W,001.9,261.7,150220,000.0,W*60
$GPGGA,193953.514,3348.527,N,11755.496,W,1,12,1.0,0.0,M,0.0,M,,*78
$GPGSA,A,3,01,02,03,04,05,06,07,08,09,10,11,12,1.0,1.0,1.0*30
$GPRMC,193953.514,A,3348.527,N,11755.496,W,001.9,261.7,150220,000.0,W*62
$GPGGA,193954.514,3348.527,N,11755.496,W,1,12,1.0,0.0,M,0.0,M,,*7F
$GPGSA,A,3,01,02,03,04,05,06,07,08,09,10,11,12,1.0,1.0,1.0*30
$GPRMC,193954.514,A,3348.527,N,11755.496,W,001.9,261.7,150220,000.0,W*65
$GPGGA,193955.514,3348.527,N,11755.497,W,1,12,1.0,0.0,M,0.0,M,,*7F
$GPGSA,A,3,01,02,03,04,05,06,07,08,09,10,11,12,1.0,1.0,1.0*30
$GPRMC,193955.514,A,3348.527,N,11755.497,W,001.9,261.7,150220,000.0,W*65
$GPGGA,193956.514,3348.527,N,11755.498,W,1,12,1.0,0.0,M,0.0,M,,*73
$GPGSA,A,3,01,02,03,04,05,06,07,08,09,10,11,12,1.0,1.0,1.0*30
$GPRMC,193956.514,A,3348.527,N,11755.498,W,001.9,261.7,150220,000.0,W*69
$GPGGA,193957.514,3348.527,N,11755.498,W,1,12,1.0,0.0,M,0.0,M,,*72
$GPGSA,A,3,01,02,03,04,05,06,07,08,09,10,11,12,1.0,1.0,1.0*30
$GPRMC,193957.514,A,3348.527,N,11755.498,W,001.9,261.7,150220,000.0,W*68
$GPGGA,193958.514,3348.527,N,11755.499,W,1,12,1.0,0.0,M,0.0,M,,*7C
$GPGSA,A,3,01,02,03,04,05,06,07,08,09,10,11,12,1.0,1.0,1.0*30
$GPRMC,193958.514,A,3348.527,N,11755.499,W,001.9,261.7,150220,000.0,W*66
$GPGGA,193959.514,3348.527,N,11755.500,W,1,12,1.0,0.0,M,0.0,M,,*7C
$GPGSA,A,3,01,02,03,04,05,06,07,08,09,10,11,12,1.0,1.0,1.0*30
$GPRMC,193959.514,A,3348.527,N,11755.500,W,001.9,276.0,150220,000.0,W*67
$GPGGA,194000.514,3348.527,N,11755.500,W,1,12,1.0,0.0,M,0.0,M,,*7E
$GPGSA,A,3,01,02,03,04,05,06,07,08,09,10,11,12,1.0,1.0,1.0*30
$GPRMC,194000.514,A,3348.527,N,11755.500,W,001.9,276.0,150220,000.0,W*65
$GPGGA,194001.514,3348.527,N,11755.501,W,1,12,1.0,0.0,M,0.0,M,,*7E
$GPGSA,A,3,01,02,03,04,05,06,07,08,09,10,11,12,1.0,1.0,1.0*30
$GPRMC,194001.514,A,3348.527,N,11755.501,W,001.9,276.0,150220,000.0,W*65
$GPGGA,194002.514,3348.527,N,11755.501,W,1,12,1.0,0.0,M,0.0,M,,*7D
$GPGSA,A,3,01,02,03,04,05,06,07,08,09,10,11,12,1.0,1.0,1.0*30
$GPRMC,194002.514,A,3348.527,N,11755.501,W,001.9,276.0,150220,000.0,W*66
$GPGGA,194003.514,3348.527,N,11755.502,W,1,12,1.0,0.0,M,0.0,M,,*7F
$GPGSA,A,3,01,02,03,04,05,06,07,08,09,10,11,12,1.0,1.0,1.0*30
$GPRMC,194003.514,A,3348.527,N,11755.502,W,001.9,276.0,150220,000.0,W*64
$GPGGA,194004.514,3348.527,N,11755.503,W,1,12,1.0,0.0,M,0.0,M,,*79
$GPGSA,A,3,01,02,03,04,05,06,07,08,09,10,11,12,1.0,1.0,1.0*30
$GPRMC,194004.514,A,3348.527,N,11755.503,W,001.9,285.5,150220,000.0,W*6B
$GPGGA,194005.514,3348.527,N,11755.503,W,1,12,1.0,0.0,M,0.0,M,,*78
$GPGSA,A,3,01,02,03,04,05,06,07,08,09,10,11,12,1.0,1.0,1.0*30
$GPRMC,194005.514,A,3348.527,N,11755.503,W,001.9,285.5,150220,000.0,W*6A
$GPGGA,194006.514,3348.527,N,11755.504,W,1,12,1.0,0.0,M,0.0,M,,*7C
$GPGSA,A,3,01,02,03,04,05,06,07,08,09,10,11,12,1.0,1.0,1.0*30
$GPRMC,194006.514,A,3348.527,N,11755.504,W,001.9,285.5,150220,000.0,W*6E
$GPGGA,194007.514,3348.527,N,11755.505,W,1,12,1.0,0.0,M,0.0,M,,*7C
$GPGSA,A,3,01,02,03,04,05,06,07,08,09,10,11,12,1.0,1.0,1.0*30
$GPRMC,194007.514,A,3348.527,N,11755.505,W,001.9,285.5,150220,000.0,W*6E
$GPGGA,194008.514,3348.528,N,11755.505,W,1,12,1.0,0.0,M,0.0,M,,*7C
$GPGSA,A,3,01,02,03,04,05,06,07,08,09,10,11,12,1.0,1.0,1.0*30
$GPRMC,194008.514,A,3348.528,N,11755.505,W,001.9,074.7,150220,000.0,W*60
$GPGGA,194009.514,3348.528,N,11755.505,W,1,12,1.0,0.0,M,0.0,M,,*7D
$GPGSA,A,3,01,02,03,04,05,06,07,08,09,10,11,12,1.0,1.0,1.0*30
$GPRMC,194009.514,A,3348.528,N,11755.505,W,001.9,074.7,150220,000.0,W*61
$GPGGA,194010.514,3348.528,N,11755.504,W,1,12,1.0,0.0,M,0.0,M,,*74
$GPGSA,A,3,01,02,03,04,05,06,07,08,09,10,11,12,1.0,1.0,1.0*30
$GPRMC,194010.514,A,3348.528,N,11755.504,W,001.9,074.7,150220,000.0,W*68
$GPGGA,194011.514,3348.528,N,11755.503,W,1,12,1.0,0.0,M,0.0,M,,*72
$GPGSA,A,3,01,02,03,04,05,06,07,08,09,10,11,12,1.0,1.0,1.0*30
$GPRMC,194011.514,A,3348.528,N,11755.503,W,001.9,074.7,150220,000.0,W*6E
$GPGGA,194012.514,3348.528,N,11755.503,W,1,12,1.0,0.0,M,0.0,M,,*71
$GPGSA,A,3,01,02,03,04,05,06,07,08,09,10,11,12,1.0,1.0,1.0*30
$GPRMC,194012.514,A,3348.528,N,11755.503,W,001.9,071.2,150220,000.0,W*6D
$GPGGA,194013.514,3348.528,N,11755.502,W,1,12,1.0,0.0,M,0.0,M,,*71
$GPGSA,A,3,01,02,03,04,05,06,07,08,09,10,11,12,1.0,1.0,1.0*30
$GPRMC,194013.514,A,3348.528,N,11755.502,W,001.9,071.2,150220,000.0,W*6D
$GPGGA,194014.514,3348.529,N,11755.502,W,1,12,1.0,0.0,M,0.0,M,,*77
$GPGSA,A,3,01,02,03,04,05,06,07,08,09,10,11,12,1.0,1.0,1.0*30
$GPRMC,194014.514,A,3348.529,N,11755.502,W,001.9,071.2,150220,000.0,W*6B
$GPGGA,194015.514,3348.529,N,11755.501,W,1,12,1.0,0.0,M,0.0,M,,*75
$GPGSA,A,3,01,02,03,04,05,06,07,08,09,10,11,12,1.0,1.0,1.0*30
$GPRMC,194015.514,A,3348.529,N,11755.501,W,001.9,071.2,150220,000.0,W*69
$GPGGA,194016.514,3348.529,N,11755.500,W,1,12,1.0,0.0,M,0.0,M,,*77
$GPGSA,A,3,01,02,03,04,05,06,07,08,09,10,11,12,1.0,1.0,1.0*30
$GPRMC,194016.514,A,3348.529,N,11755.500,W,001.9,292.1,150220,000.0,W*67
$GPGGA,194017.514,3348.529,N,11755.501,W,1,12,1.0,0.0,M,0.0,M,,*77
$GPGSA,A,3,01,02,03,04,05,06,07,08,09,10,11,12,1.0,1.0,1.0*30
$GPRMC,194017.514,A,3348.529,N,11755.501,W,001.9,292.1,150220,000.0,W*67
$GPGGA,194018.514,3348.530,N,11755.501,W,1,12,1.0,0.0,M,0.0,M,,*70
$GPGSA,A,3,01,02,03,04,05,06,07,08,09,10,11,12,1.0,1.0,1.0*30
$GPRMC,194018.514,A,3348.530,N,11755.501,W,001.9,292.1,150220,000.0,W*60
$GPGGA,194019.514,3348.530,N,11755.502,W,1,12,1.0,0.0,M,0.0,M,,*72
$GPGSA,A,3,01,02,03,04,05,06,07,08,09,10,11,12,1.0,1.0,1.0*30
$GPRMC,194019.514,A,3348.530,N,11755.502,W,001.9,292.1,150220,000.0,W*62
$GPGGA,194020.514,3348.530,N,11755.503,W,1,12,1.0,0.0,M,0.0,M,,*79
$GPGSA,A,3,01,02,03,04,05,06,07,08,09,10,11,12,1.0,1.0,1.0*30
$GPRMC,194020.514,A,3348.530,N,11755.503,W,001.9,292.1,150220,000.0,W*69
$GPGGA,194021.514,3348.530,N,11755.503,W,1,12,1.0,0.0,M,0.0,M,,*78
$GPGSA,A,3,01,02,03,04,05,06,07,08,09,10,11,12,1.0,1.0,1.0*30
$GPRMC,194021.514,A,3348.530,N,11755.503,W,001.9,292.1,150220,000.0,W*68
$GPGGA,194022.514,3348.530,N,11755.504,W,1,12,1.0,0.0,M,0.0,M,,*7C
$GPGSA,A,3,01,02,03,04,05,06,07,08,09,10,11,12,1.0,1.0,1.0*30
$GPRMC,194022.514,A,3348.530,N,11755.504,W,001.9,292.1,150220,000.0,W*6C
$GPGGA,194023.514,3348.531,N,11755.504,W,1,12,1.0,0.0,M,0.0,M,,*7C
$GPGSA,A,3,01,02,03,04,05,06,07,08,09,10,11,12,1.0,1.0,1.0*30
$GPRMC,194023.514,A,3348.531,N,11755.504,W,001.9,292.1,150220,000.0,W*6C
$GPGGA,194024.514,3348.531,N,11755.505,W,1,12,1.0,0.0,M,0.0,M,,*7A
$GPGSA,A,3,01,02,03,04,05,06,07,08,09,10,11,12,1.0,1.0,1.0*30
$GPRMC,194024.514,A,3348.531,N,11755.505,W,001.9,292.1,150220,000.0,W*6A
$GPGGA,194025.514,3348.531,N,11755.506,W,1,12,1.0,0.0,M,0.0,M,,*78
$GPGSA,A,3,01,02,03,04,05,06,07,08,09,10,11,12,1.0,1.0,1.0*30
$GPRMC,194025.514,A,3348.531,N,11755.506,W,001.9,308.5,150220,000.0,W*6E
$GPGGA,194026.514,3348.532,N,11755.506,W,1,12,1.0,0.0,M,0.0,M,,*78
$GPGSA,A,3,01,02,03,04,05,06,07,08,09,10,11,12,1.0,1.0,1.0*30
$GPRMC,194026.514,A,3348.532,N,11755.506,W,001.9,308.5,150220,000.0,W*6E
$GPGGA,194027.514,3348.532,N,11755.507,W,1,12,1.0,0.0,M,0.0,M,,*78
$GPGSA,A,3,01,02,03,04,05,06,07,08,09,10,11,12,1.0,1.0,1.0*30
$GPRMC,194027.514,A,3348.532,N,11755.507,W,001.9,308.5,150220,000.0,W*6E
$GPGGA,194028.514,3348.532,N,11755.507,W,1,12,1.0,0.0,M,0.0,M,,*77
$GPGSA,A,3,01,02,03,04,05,06,07,08,09,10,11,12,1.0,1.0,1.0*30
$GPRMC,194028.514,A,3348.532,N,11755.507,W,001.9,308.5,150220,000.0,W*61
$GPGGA,194029.514,3348.533,N,11755.507,W,1,12,1.0,0.0,M,0.0,M,,*77
$GPGSA,A,3,01,02,03,04,05,06,07,08,09,10,11,12,1.0,1.0,1.0*30
$GPRMC,194029.514,A,3348.533,N,11755.507,W,001.9,308.5,150220,000.0,W*61
$GPGGA,194030.514,3348.533,N,11755.508,W,1,12,1.0,0.0,M,0.0,M,,*70
$GPGSA,A,3,01,02,03,04,05,06,07,08,09,10,11,12,1.0,1.0,1.0*30
$GPRMC,194030.514,A,3348.533,N,11755.508,W,001.9,359.1,150220,000.0,W*66
$GPGGA,194031.514,3348.534,N,11755.508,W,1,12,1.0,0.0,M,0.0,M,,*76
$GPGSA,A,3,01,02,03,04,05,06,07,08,09,10,11,12,1.0,1.0,1.0*30
$GPRMC,194031.514,A,3348.534,N,11755.508,W,001.9,359.1,150220,000.0,W*60
$GPGGA,194032.514,3348.534,N,11755.508,W,1,12,1.0,0.0,M,0.0,M,,*75
$GPGSA,A,3,01,02,03,04,05,06,07,08,09,10,11,12,1.0,1.0,1.0*30
$GPRMC,194032.514,A,3348.534,N,11755.508,W,001.9,359.1,150220,000.0,W*63
$GPGGA,194033.514,3348.535,N,11755.508,W,1,12,1.0,0.0,M,0.0,M,,*75
$GPGSA,A,3,01,02,03,04,05,06,07,08,09,10,11,12,1.0,1.0,1.0*30
$GPRMC,194033.514,A,3348.535,N,11755.508,W,001.9,043.7,150220,000.0,W*6D
$GPGGA,194034.514,3348.535,N,11755.508,W,1,12,1.0,0.0,M,0.0,M,,*72
$GPGSA,A,3,01,02,03,04,05,06,07,08,09,10,11,12,1.0,1.0,1.0*30
$GPRMC,194034.514,A,3348.535,N,11755.508,W,001.9,043.7,150220,000.0,W*6A
$GPGGA,194035.514,3348.536,N,11755.507,W,1,12,1.0,0.0,M,0.0,M,,*7F
$GPGSA,A,3,01,02,03,04,05,06,07,08,09,10,11,12,1.0,1.0,1.0*30
$GPRMC,194035.514,A,3348.536,N,11755.507,W,001.9,043.7,150220,000.0,W*67
$GPGGA,194036.514,3348.536,N,11755.507,W,1,12,1.0,0.0,M,0.0,M,,*7C
$GPGSA,A,3,01,02,03,04,05,06,07,08,09,10,11,12,1.0,1.0,1.0*30
$GPRMC,194036.514,A,3348.536,N,11755.507,W,001.9,043.7,150220,000.0,W*64
$GPGGA,194037.514,3348.536,N,11755.506,W,1,12,1.0,0.0,M,0.0,M,,*7C
$GPGSA,A,3,01,02,03,04,05,06,07,08,09,10,11,12,1.0,1.0,1.0*30
$GPRMC,194037.514,A,3348.536,N,11755.506,W,001.9,043.7,150220,000.0,W*64
$GPGGA,194038.514,3348.537,N,11755.506,W,1,12,1.0,0.0,M,0.0,M,,*72
$GPGSA,A,3,01,02,03,04,05,06,07,08,09,10,11,12,1.0,1.0,1.0*30
$GPRMC,194038.514,A,3348.537,N,11755.506,W,001.9,043.7,150220,000.0,W*6A
$GPGGA,194039.514,3348.537,N,11755.506,W,1,12,1.0,0.0,M,0.0,M,,*73
$GPGSA,A,3,01,02,03,04,05,06,07,08,09,10,11,12,1.0,1.0,1.0*30
$GPRMC,194039.514,A,3348.537,N,11755.506,W,001.9,043.7,150220,000.0,W*6B
$GPGGA,194040.514,3348.538,N,11755.505,W,1,12,1.0,0.0,M,0.0,M,,*71
$GPGSA,A,3,01,02,03,04,05,06,07,08,09,10,11,12,1.0,1.0,1.0*30
$GPRMC,194040.514,A,3348.538,N,11755.505,W,001.9,043.7,150220,000.0,W*69
$GPGGA,194041.514,3348.538,N,11755.505,W,1,12,1.0,0.0,M,0.0,M,,*70
$GPGSA,A,3,01,02,03,04,05,06,07,08,09,10,11,12,1.0,1.0,1.0*30
$GPRMC,194041.514,A,3348.538,N,11755.505,W,001.9,070.6,150220,000.0,W*69
$GPGGA,194042.514,3348.538,N,11755.504,W,1,12,1.0,0.0,M,0.0,M,,*72
$GPGSA,A,3,01,02,03,04,05,06,07,08,09,10,11,12,1.0,1.0,1.0*30
$GPRMC,194042.514,A,3348.538,N,11755.504,W,001.9,070.6,150220,000.0,W*6B
$GPGGA,194043.514,3348.538,N,11755.504,W,1,12,1.0,0.0,M,0.0,M,,*73
$GPGSA,A,3,01,02,03,04,05,06,07,08,09,10,11,12,1.0,1.0,1.0*30
$GPRMC,194043.514,A,3348.538,N,11755.504,W,001.9,070.6,150220,000.0,W*6A
$GPGGA,194044.514,3348.539,N,11755.503,W,1,12,1.0,0.0,M,0.0,M,,*72
$GPGSA,A,3,01,02,03,04,05,06,07,08,09,10,11,12,1.0,1.0,1.0*30
$GPRMC,194044.514,A,3348.539,N,11755.503,W,001.9,070.6,150220,000.0,W*6B
$GPGGA,194045.514,3348.539,N,11755.502,W,1,12,1.0,0.0,M,0.0,M,,*72
$GPGSA,A,3,01,02,03,04,05,06,07,08,09,10,11,12,1.0,1.0,1.0*30
$GPRMC,194045.514,A,3348.539,N,11755.502,W,001.9,070.6,150220,000.0,W*6B
$GPGGA,194046.514,3348.539,N,11755.502,W,1,12,1.0,0.0,M,0.0,M,,*71
$GPGSA,A,3,01,02,03,04,05,06,07,08,09,10,11,12,1.0,1.0,1.0*30
$GPRMC,194046.514,A,3348.539,N,11755.502,W,001.9,070.6,150220,000.0,W*68
$GPGGA,194047.514,3348.539,N,11755.501,W,1,12,1.0,0.0,M,0.0,M,,*73
$GPGSA,A,3,01,02,03,04,05,06,07,08,09,10,11,12,1.0,1.0,1.0*30
$GPRMC,194047.514,A,3348.539,N,11755.501,W,001.9,070.6,150220,000.0,W*6A
$GPGGA,194048.514,3348.540,N,11755.501,W,1,12,1.0,0.0,M,0.0,M,,*72
$GPGSA,A,3,01,02,03,04,05,06,07,08,09,10,11,12,1.0,1.0,1.0*30
$GPRMC,194048.514,A,3348.540,N,11755.501,W,001.9,070.6,150220,000.0,W*6B
$GPGGA,194049.514,3348.540,N,11755.500,W,1,12,1.0,0.0,M,0.0,M,,*72
$GPGSA,A,3,01,02,03,04,05,06,07,08,09,10,11,12,1.0,1.0,1.0*30
$GPRMC,194049.514,A,3348.540,N,11755.500,W,001.9,070.6,150220,000.0,W*6B
$GPGGA,194050.514,3348.540,N,11755.499,W,1,12,1.0,0.0,M,0.0,M,,*7B
$GPGSA,A,3,01,02,03,04,05,06,07,08,09,10,11,12,1.0,1.0,1.0*30
$GPRMC,194050.514,A,3348.540,N,11755.499,W,001.9,145.6,150220,000.0,W*65
$GPGGA,194051.514,3348.539,N,11755.499,W,1,12,1.0,0.0,M,0.0,M,,*74
$GPGSA,A,3,01,02,03,04,05,06,07,08,09,10,11,12,1.0,1.0,1.0*30
$GPRMC,194051.514,A,3348.539,N,11755.499,W,001.9,145.6,150220,000.0,W*6A
$GPGGA,194052.514,3348.539,N,11755.499,W,1,12,1.0,0.0,M,0.0,M,,*77
$GPGSA,A,3,01,02,03,04,05,06,07,08,09,10,11,12,1.0,1.0,1.0*30
$GPRMC,194052.514,A,3348.539,N,11755.499,W,001.9,145.6,150220,000.0,W*69
$GPGGA,194053.514,3348.539,N,11755.498,W,1,12,1.0,0.0,M,0.0,M,,*77
$GPGSA,A,3,01,02,03,04,05,06,07,08,09,10,11,12,1.0,1.0,1.0*30
$GPRMC,194053.514,A,3348.539,N,11755.498,W,001.9,145.6,150220,000.0,W*69
$GPGGA,194054.514,3348.538,N,11755.498,W,1,12,1.0,0.0,M,0.0,M,,*71
$GPGSA,A,3,01,02,03,04,05,06,07,08,09,10,11,12,1.0,1.0,1.0*30
$GPRMC,194054.514,A,3348.538,N,11755.498,W,001.9,076.3,150220,000.0,W*6B
$GPGGA,194055.514,3348.538,N,11755.497,W,1,12,1.0,0.0,M,0.0,M,,*7F
$GPGSA,A,3,01,02,03,04,05,06,07,08,09,10,11,12,1.0,1.0,1.0*30
$GPRMC,194055.514,A,3348.538,N,11755.497,W,001.9,076.3,150220,000.0,W*65
$GPGGA,194056.514,3348.538,N,11755.497,W,1,12,1.0,0.0,M,0.0,M,,*7C
$GPGSA,A,3,01,02,03,04,05,06,07,08,09,10,11,12,1.0,1.0,1.0*30
$GPRMC,194056.514,A,3348.538,N,11755.497,W,001.9,076.3,150220,000.0,W*66
$GPGGA,194057.514,3348.539,N,11755.496,W,1,12,1.0,0.0,M,0.0,M,,*7D
$GPGSA,A,3,01,02,03,04,05,06,07,08,09,10,11,12,1.0,1.0,1.0*30
$GPRMC,194057.514,A,3348.539,N,11755.496,W,001.9,076.3,150220,000.0,W*67
